<?xml version="1.0" encoding="UTF-8"?>
<kml xmlns="http://www.opengis.net/kml/2.2"><Document><Style id="red"><IconStyle><Icon><href>http://maps.google.com/mapfiles/ms/icons/red-dot.png</href></Icon></IconStyle></Style><Style id="yellow"><IconStyle><Icon><href>http://maps.google.com/mapfiles/ms/icons/yellow-dot.png</href></Icon></IconStyle></Style><Style id="green"><IconStyle><Icon><href>http://maps.google.com/mapfiles/ms/icons/green-dot.png</href></Icon></IconStyle></Style><Folder><name>Wifi Networks</name>
<Placemark>
<name><![CDATA[daniel]]></name>
<description><![CDATA[BSSID: <b>90:f6:52:55:88:91</b><br/>Capabilities: <b>[ESS]</b><br/>Frequency: <b>2462</b><br/>Timestamp: <b>1509110575000</b><br/>Date: <b>2017-10-27 16:22:55</b>]]></description><styleUrl>#green</styleUrl>
<Point>
<coordinates>34.80080423,32.17091575</coordinates></Point>
</Placemark>
<Placemark>
<name><![CDATA[oved-main_2EX]]></name>
<description><![CDATA[BSSID: <b>74:da:38:97:66:9d</b><br/>Capabilities: <b>[WPA2-PSK-CCMP][WPS][ESS]</b><br/>Frequency: <b>2437</b><br/>Timestamp: <b>1509110874000</b><br/>Date: <b>2017-10-27 16:27:54</b>]]></description><styleUrl>#red</styleUrl>
<Point>
<coordinates>34.81046488,32.16860304</coordinates></Point>
</Placemark>
<Placemark>
<name><![CDATA[ben_ami_2.4]]></name>
<description><![CDATA[BSSID: <b>c4:04:15:60:6a:b5</b><br/>Capabilities: <b>[WPA2-PSK-CCMP][WPS][ESS]</b><br/>Frequency: <b>2412</b><br/>Timestamp: <b>1509110853000</b><br/>Date: <b>2017-10-27 16:27:33</b>]]></description><styleUrl>#red</styleUrl>
<Point>
<coordinates>34.81143093,32.17074449</coordinates></Point>
</Placemark>
<Placemark>
<name><![CDATA[888Corp]]></name>
<description><![CDATA[BSSID: <b>0a:8d:cb:6e:71:be</b><br/>Capabilities: <b>[WPA2-EAP-CCMP][ESS]</b><br/>Frequency: <b>5220</b><br/>Timestamp: <b>1509110233000</b><br/>Date: <b>2017-10-27 16:17:13</b>]]></description><styleUrl>#red</styleUrl>
<Point>
<coordinates>34.80987698,32.16769734</coordinates></Point>
</Placemark>
<Placemark>
<name><![CDATA[LEE2]]></name>
<description><![CDATA[BSSID: <b>00:b0:c6:57:6a:99</b><br/>Capabilities: <b>[WPA2-PSK-CCMP][ESS]</b><br/>Frequency: <b>5180</b><br/>Timestamp: <b>1509110647000</b><br/>Date: <b>2017-10-27 16:24:07</b>]]></description><styleUrl>#red</styleUrl>
<Point>
<coordinates>34.80266874,32.16777763</coordinates></Point>
</Placemark>
<Placemark>
<name><![CDATA[DIRECT-A3-HP OfficeJet Pro 8710]]></name>
<description><![CDATA[BSSID: <b>a0:8c:fd:54:7b:54</b><br/>Capabilities: <b>[WPA2-PSK-CCMP][WPS][ESS]</b><br/>Frequency: <b>2462</b><br/>Timestamp: <b>1509110877000</b><br/>Date: <b>2017-10-27 16:27:57</b>]]></description><styleUrl>#red</styleUrl>
<Point>
<coordinates>34.81035666,32.16828928</coordinates></Point>
</Placemark>
<Placemark>
<name><![CDATA[daniel]]></name>
<description><![CDATA[BSSID: <b>00:27:19:e8:a8:ef</b><br/>Capabilities: <b>[ESS]</b><br/>Frequency: <b>2422</b><br/>Timestamp: <b>1509110547000</b><br/>Date: <b>2017-10-27 16:22:27</b>]]></description><styleUrl>#green</styleUrl>
<Point>
<coordinates>34.80121825,32.1718311</coordinates></Point>
</Placemark>
<Placemark>
<name><![CDATA[HOTBOX-1]]></name>
<description><![CDATA[BSSID: <b>40:65:a3:2b:58:68</b><br/>Capabilities: <b>[WPA-PSK-CCMP+TKIP][WPA2-PSK-CCMP+TKIP][ESS]</b><br/>Frequency: <b>2462</b><br/>Timestamp: <b>1509110520000</b><br/>Date: <b>2017-10-27 16:22:00</b>]]></description><styleUrl>#red</styleUrl>
<Point>
<coordinates>34.80147664,32.17235211</coordinates></Point>
</Placemark>
<Placemark>
<name><![CDATA[zinger]]></name>
<description><![CDATA[BSSID: <b>88:dc:96:1c:a2:00</b><br/>Capabilities: <b>[WPA2-PSK-CCMP][WPS][ESS]</b><br/>Frequency: <b>2432</b><br/>Timestamp: <b>1509110752000</b><br/>Date: <b>2017-10-27 16:25:52</b>]]></description><styleUrl>#red</styleUrl>
<Point>
<coordinates>34.80675484,32.17019592</coordinates></Point>
</Placemark>
<Placemark>
<name><![CDATA[HamiacheM]]></name>
<description><![CDATA[BSSID: <b>14:ae:db:43:27:3d</b><br/>Capabilities: <b>[WPA-PSK-CCMP+TKIP][WPA2-PSK-CCMP+TKIP][WPS][ESS]</b><br/>Frequency: <b>2437</b><br/>Timestamp: <b>1509110797000</b><br/>Date: <b>2017-10-27 16:26:37</b>]]></description><styleUrl>#red</styleUrl>
<Point>
<coordinates>34.80921234,32.17324726</coordinates></Point>
</Placemark>
<Placemark>
<name><![CDATA[Gil-Up]]></name>
<description><![CDATA[BSSID: <b>50:c7:bf:36:df:98</b><br/>Capabilities: <b>[WPA2-PSK-CCMP][WPS][ESS]</b><br/>Frequency: <b>2447</b><br/>Timestamp: <b>1509110847000</b><br/>Date: <b>2017-10-27 16:27:27</b>]]></description><styleUrl>#red</styleUrl>
<Point>
<coordinates>34.81173835,32.17137454</coordinates></Point>
</Placemark>
<Placemark>
<name><![CDATA[]]></name>
<description><![CDATA[BSSID: <b>d8:38:fc:66:dc:38</b><br/>Capabilities: <b>[WPA2-PSK-CCMP][ESS]</b><br/>Frequency: <b>2427</b><br/>Timestamp: <b>1509110611000</b><br/>Date: <b>2017-10-27 16:23:31</b>]]></description><styleUrl>#red</styleUrl>
<Point>
<coordinates>34.8001699,32.16873071</coordinates></Point>
</Placemark>
<Placemark>
<name><![CDATA[HOTBOX-62D0_2EX]]></name>
<description><![CDATA[BSSID: <b>74:da:38:a6:3c:32</b><br/>Capabilities: <b>[WPA2-PSK-CCMP][WPS][ESS]</b><br/>Frequency: <b>2412</b><br/>Timestamp: <b>1509110608000</b><br/>Date: <b>2017-10-27 16:23:28</b>]]></description><styleUrl>#red</styleUrl>
<Point>
<coordinates>34.80022497,32.16896675</coordinates></Point>
</Placemark>
<Placemark>
<name><![CDATA[peles]]></name>
<description><![CDATA[BSSID: <b>5c:d9:98:c6:50:2f</b><br/>Capabilities: <b>[WEP][ESS]</b><br/>Frequency: <b>2437</b><br/>Timestamp: <b>1509110800000</b><br/>Date: <b>2017-10-27 16:26:40</b>]]></description><styleUrl>#yellow</styleUrl>
<Point>
<coordinates>34.80965043,32.17314943</coordinates></Point>
</Placemark>
<Placemark>
<name><![CDATA[DIRECT-9J-BRAVIA]]></name>
<description><![CDATA[BSSID: <b>56:35:30:aa:49:43</b><br/>Capabilities: <b>[WPA2-PSK-CCMP][WPS][ESS]</b><br/>Frequency: <b>2462</b><br/>Timestamp: <b>1509110785000</b><br/>Date: <b>2017-10-27 16:26:25</b>]]></description><styleUrl>#red</styleUrl>
<Point>
<coordinates>34.8080852,32.17329851</coordinates></Point>
</Placemark>
<Placemark>
<name><![CDATA[angelina]]></name>
<description><![CDATA[BSSID: <b>bc:f6:85:0d:5b:c0</b><br/>Capabilities: <b>[WEP][ESS]</b><br/>Frequency: <b>2437</b><br/>Timestamp: <b>1509110493000</b><br/>Date: <b>2017-10-27 16:21:33</b>]]></description><styleUrl>#yellow</styleUrl>
<Point>
<coordinates>34.80079707,32.1707069</coordinates></Point>
</Placemark>
<Placemark>
<name><![CDATA[allen123]]></name>
<description><![CDATA[BSSID: <b>54:e6:fc:b5:39:9e</b><br/>Capabilities: <b>[WPA2-PSK-CCMP][WPS][ESS]</b><br/>Frequency: <b>2462</b><br/>Timestamp: <b>1509110584000</b><br/>Date: <b>2017-10-27 16:23:04</b>]]></description><styleUrl>#red</styleUrl>
<Point>
<coordinates>34.80053654,32.17014829</coordinates></Point>
</Placemark>
<Placemark>
<name><![CDATA[BezeqFree]]></name>
<description><![CDATA[BSSID: <b>62:8d:78:50:6a:13</b><br/>Capabilities: <b>[WPA2-PSK-CCMP][ESS]</b><br/>Frequency: <b>2462</b><br/>Timestamp: <b>1509110728000</b><br/>Date: <b>2017-10-27 16:25:28</b>]]></description><styleUrl>#red</styleUrl>
<Point>
<coordinates>34.80606514,32.167768</coordinates></Point>
</Placemark>
<Placemark>
<name><![CDATA[ensilo_2.4GH_1]]></name>
<description><![CDATA[BSSID: <b>00:30:4f:82:a4:48</b><br/>Capabilities: <b>[WPA2-PSK-CCMP-preauth][ESS]</b><br/>Frequency: <b>2462</b><br/>Timestamp: <b>1509110886000</b><br/>Date: <b>2017-10-27 16:28:06</b>]]></description><styleUrl>#red</styleUrl>
<Point>
<coordinates>34.80992403,32.167615</coordinates></Point>
</Placemark>
<Placemark>
<name><![CDATA[daniel]]></name>
<description><![CDATA[BSSID: <b>e8:1d:a8:03:91:48</b><br/>Capabilities: <b>[ESS]</b><br/>Frequency: <b>2447</b><br/>Timestamp: <b>1509110581000</b><br/>Date: <b>2017-10-27 16:23:01</b>]]></description><styleUrl>#green</styleUrl>
<Point>
<coordinates>34.80062195,32.17038651</coordinates></Point>
</Placemark>
<Placemark>
<name><![CDATA[Tache]]></name>
<description><![CDATA[BSSID: <b>14:cc:20:b3:99:76</b><br/>Capabilities: <b>[WPA2-PSK-CCMP][WPS][ESS]</b><br/>Frequency: <b>2422</b><br/>Timestamp: <b>1509110641000</b><br/>Date: <b>2017-10-27 16:24:01</b>]]></description><styleUrl>#red</styleUrl>
<Point>
<coordinates>34.80206584,32.16785244</coordinates></Point>
</Placemark>
<Placemark>
<name><![CDATA[Dekel2]]></name>
<description><![CDATA[BSSID: <b>74:da:38:a9:2c:6c</b><br/>Capabilities: <b>[WPA2-PSK-CCMP-preauth][WPS][ESS]</b><br/>Frequency: <b>2417</b><br/>Timestamp: <b>1509110815000</b><br/>Date: <b>2017-10-27 16:26:55</b>]]></description><styleUrl>#red</styleUrl>
<Point>
<coordinates>34.81140622,32.17274362</coordinates></Point>
</Placemark>
<Placemark>
<name><![CDATA[HOTFiber5476]]></name>
<description><![CDATA[BSSID: <b>7c:b7:33:ea:b6:8f</b><br/>Capabilities: <b>[WPA-PSK-CCMP+TKIP][WPA2-PSK-CCMP+TKIP][ESS]</b><br/>Frequency: <b>2462</b><br/>Timestamp: <b>1509110644000</b><br/>Date: <b>2017-10-27 16:24:04</b>]]></description><styleUrl>#red</styleUrl>
<Point>
<coordinates>34.80240578,32.16782073</coordinates></Point>
</Placemark>
<Placemark>
<name><![CDATA[ida]]></name>
<description><![CDATA[BSSID: <b>c0:c1:c0:ce:4d:06</b><br/>Capabilities: <b>[WPA-PSK-TKIP][ESS]</b><br/>Frequency: <b>2462</b><br/>Timestamp: <b>1509110728000</b><br/>Date: <b>2017-10-27 16:25:28</b>]]></description><styleUrl>#red</styleUrl>
<Point>
<coordinates>34.80606514,32.167768</coordinates></Point>
</Placemark>
<Placemark>
<name><![CDATA[HOTBOX-9666]]></name>
<description><![CDATA[BSSID: <b>7c:b7:33:c0:96:6c</b><br/>Capabilities: <b>[WPA-PSK-CCMP+TKIP][WPA2-PSK-CCMP+TKIP][ESS]</b><br/>Frequency: <b>2412</b><br/>Timestamp: <b>1509110818000</b><br/>Date: <b>2017-10-27 16:26:58</b>]]></description><styleUrl>#red</styleUrl>
<Point>
<coordinates>34.81166081,32.17262741</coordinates></Point>
</Placemark>
<Placemark>
<name><![CDATA[HOTBOX-D1D7]]></name>
<description><![CDATA[BSSID: <b>fc:b4:e6:cf:d1:dd</b><br/>Capabilities: <b>[WPA-PSK-CCMP+TKIP][WPA2-PSK-CCMP+TKIP][ESS]</b><br/>Frequency: <b>2412</b><br/>Timestamp: <b>1509110182000</b><br/>Date: <b>2017-10-27 16:16:22</b>]]></description><styleUrl>#red</styleUrl>
<Point>
<coordinates>34.80988697,32.16763949</coordinates></Point>
</Placemark>
<Placemark>
<name><![CDATA[Tamara]]></name>
<description><![CDATA[BSSID: <b>14:ae:db:b0:41:25</b><br/>Capabilities: <b>[WPA2-PSK-CCMP][ESS]</b><br/>Frequency: <b>2462</b><br/>Timestamp: <b>1509110399000</b><br/>Date: <b>2017-10-27 16:19:59</b>]]></description><styleUrl>#red</styleUrl>
<Point>
<coordinates>34.80351026,32.16825198</coordinates></Point>
</Placemark>
<Placemark>
<name><![CDATA[Gil Kitchen]]></name>
<description><![CDATA[BSSID: <b>80:1f:02:a3:7d:62</b><br/>Capabilities: <b>[WPA-PSK-TKIP][ESS]</b><br/>Frequency: <b>2437</b><br/>Timestamp: <b>1509110847000</b><br/>Date: <b>2017-10-27 16:27:27</b>]]></description><styleUrl>#red</styleUrl>
<Point>
<coordinates>34.81173835,32.17137454</coordinates></Point>
</Placemark>
<Placemark>
<name><![CDATA[vue sur mer_2.4]]></name>
<description><![CDATA[BSSID: <b>a4:2b:8c:98:db:d2</b><br/>Capabilities: <b>[WPA2-PSK-CCMP][WPS][ESS]</b><br/>Frequency: <b>2412</b><br/>Timestamp: <b>1509110713000</b><br/>Date: <b>2017-10-27 16:25:13</b>]]></description><styleUrl>#red</styleUrl>
<Point>
<coordinates>34.80501351,32.16799787</coordinates></Point>
</Placemark>
<Placemark>
<name><![CDATA[888Guest]]></name>
<description><![CDATA[BSSID: <b>02:8d:db:6e:71:13</b><br/>Capabilities: <b>[ESS]</b><br/>Frequency: <b>2412</b><br/>Timestamp: <b>1509110883000</b><br/>Date: <b>2017-10-27 16:28:03</b>]]></description><styleUrl>#green</styleUrl>
<Point>
<coordinates>34.8100792,32.16776437</coordinates></Point>
</Placemark>
<Placemark>
<name><![CDATA[TV]]></name>
<description><![CDATA[BSSID: <b>f8:32:e4:b4:31:40</b><br/>Capabilities: <b>[WPA2-PSK-CCMP][WPS][ESS]</b><br/>Frequency: <b>2417</b><br/>Timestamp: <b>1509110779000</b><br/>Date: <b>2017-10-27 16:26:19</b>]]></description><styleUrl>#red</styleUrl>
<Point>
<coordinates>34.80783579,32.17276011</coordinates></Point>
</Placemark>
<Placemark>
<name><![CDATA[rdk]]></name>
<description><![CDATA[BSSID: <b>e4:d3:f1:9a:81:60</b><br/>Capabilities: <b>[WPA2-PSK-CCMP][ESS]</b><br/>Frequency: <b>2447</b><br/>Timestamp: <b>1509110868000</b><br/>Date: <b>2017-10-27 16:27:48</b>]]></description><styleUrl>#red</styleUrl>
<Point>
<coordinates>34.81069134,32.16925256</coordinates></Point>
</Placemark>
<Placemark>
<name><![CDATA[Hotbox]]></name>
<description><![CDATA[BSSID: <b>14:ae:db:c1:73:25</b><br/>Capabilities: <b>[WPA2-PSK-CCMP][ESS]</b><br/>Frequency: <b>2437</b><br/>Timestamp: <b>1509110584000</b><br/>Date: <b>2017-10-27 16:23:04</b>]]></description><styleUrl>#red</styleUrl>
<Point>
<coordinates>34.80053654,32.17014829</coordinates></Point>
</Placemark>
<Placemark>
<name><![CDATA[lavel-2]]></name>
<description><![CDATA[BSSID: <b>74:da:38:ae:91:7b</b><br/>Capabilities: <b>[WPA2-PSK-CCMP-preauth][WPS][ESS]</b><br/>Frequency: <b>2417</b><br/>Timestamp: <b>1509110322000</b><br/>Date: <b>2017-10-27 16:18:42</b>]]></description><styleUrl>#red</styleUrl>
<Point>
<coordinates>34.80953943,32.16739532</coordinates></Point>
</Placemark>
<Placemark>
<name><![CDATA[]]></name>
<description><![CDATA[BSSID: <b>d8:38:fc:68:18:58</b><br/>Capabilities: <b>[WPA2-PSK-CCMP][ESS]</b><br/>Frequency: <b>2437</b><br/>Timestamp: <b>1509110635000</b><br/>Date: <b>2017-10-27 16:23:55</b>]]></description><styleUrl>#red</styleUrl>
<Point>
<coordinates>34.80145366,32.16791664</coordinates></Point>
</Placemark>
<Placemark>
<name><![CDATA[edimax_2.4G_A92417]]></name>
<description><![CDATA[BSSID: <b>74:da:38:a9:24:17</b><br/>Capabilities: <b>[WPA2-PSK-CCMP][WPS][ESS]</b><br/>Frequency: <b>2417</b><br/>Timestamp: <b>1509110880000</b><br/>Date: <b>2017-10-27 16:28:00</b>]]></description><styleUrl>#red</styleUrl>
<Point>
<coordinates>34.81022347,32.16799923</coordinates></Point>
</Placemark>
<Placemark>
<name><![CDATA[mookie5]]></name>
<description><![CDATA[BSSID: <b>18:d6:c7:83:c8:8a</b><br/>Capabilities: <b>[WPA2-PSK-CCMP+TKIP][WPS][ESS]</b><br/>Frequency: <b>2412</b><br/>Timestamp: <b>1509110584000</b><br/>Date: <b>2017-10-27 16:23:04</b>]]></description><styleUrl>#red</styleUrl>
<Point>
<coordinates>34.80053654,32.17014829</coordinates></Point>
</Placemark>
<Placemark>
<name><![CDATA[sesadido]]></name>
<description><![CDATA[BSSID: <b>10:be:f5:37:f7:6e</b><br/>Capabilities: <b>[WPA2-PSK-CCMP][ESS]</b><br/>Frequency: <b>2422</b><br/>Timestamp: <b>1509110644000</b><br/>Date: <b>2017-10-27 16:24:04</b>]]></description><styleUrl>#red</styleUrl>
<Point>
<coordinates>34.80240578,32.16782073</coordinates></Point>
</Placemark>
<Placemark>
<name><![CDATA[Bezeq Free]]></name>
<description><![CDATA[BSSID: <b>52:f1:df:a0:70:ea</b><br/>Capabilities: <b>[ESS]</b><br/>Frequency: <b>2437</b><br/>Timestamp: <b>1509110773000</b><br/>Date: <b>2017-10-27 16:26:13</b>]]></description><styleUrl>#green</styleUrl>
<Point>
<coordinates>34.80762906,32.17223115</coordinates></Point>
</Placemark>
<Placemark>
<name><![CDATA[egypt 1]]></name>
<description><![CDATA[BSSID: <b>b8:a3:86:0e:50:04</b><br/>Capabilities: <b>[ESS]</b><br/>Frequency: <b>2437</b><br/>Timestamp: <b>1509110749000</b><br/>Date: <b>2017-10-27 16:25:49</b>]]></description><styleUrl>#green</styleUrl>
<Point>
<coordinates>34.80660254,32.16985096</coordinates></Point>
</Placemark>
<Placemark>
<name><![CDATA[Rina]]></name>
<description><![CDATA[BSSID: <b>00:26:5a:77:8c:db</b><br/>Capabilities: <b>[WPA2-PSK-CCMP][ESS]</b><br/>Frequency: <b>2437</b><br/>Timestamp: <b>1509110167000</b><br/>Date: <b>2017-10-27 16:16:07</b>]]></description><styleUrl>#red</styleUrl>
<Point>
<coordinates>34.81030598,32.1682687</coordinates></Point>
</Placemark>
<Placemark>
<name><![CDATA[]]></name>
<description><![CDATA[BSSID: <b>fa:8f:ca:7c:70:2f</b><br/>Capabilities: <b>[ESS]</b><br/>Frequency: <b>2462</b><br/>Timestamp: <b>1509110454000</b><br/>Date: <b>2017-10-27 16:20:54</b>]]></description><styleUrl>#green</styleUrl>
<Point>
<coordinates>34.80047649,32.16851102</coordinates></Point>
</Placemark>
<Placemark>
<name><![CDATA[Student]]></name>
<description><![CDATA[BSSID: <b>82:2a:a8:18:13:88</b><br/>Capabilities: <b>[WPA2-PSK-CCMP][ESS]</b><br/>Frequency: <b>2462</b><br/>Timestamp: <b>1509110434000</b><br/>Date: <b>2017-10-27 16:20:34</b>]]></description><styleUrl>#red</styleUrl>
<Point>
<coordinates>34.80237038,32.16831093</coordinates></Point>
</Placemark>
<Placemark>
<name><![CDATA[Neeman2.4]]></name>
<description><![CDATA[BSSID: <b>20:0c:c8:1d:c8:2b</b><br/>Capabilities: <b>[WPA2-PSK-CCMP][WPS][ESS]</b><br/>Frequency: <b>2412</b><br/>Timestamp: <b>1509110874000</b><br/>Date: <b>2017-10-27 16:27:54</b>]]></description><styleUrl>#red</styleUrl>
<Point>
<coordinates>34.81046488,32.16860304</coordinates></Point>
</Placemark>
<Placemark>
<name><![CDATA[wingate]]></name>
<description><![CDATA[BSSID: <b>70:3a:cb:5f:4f:25</b><br/>Capabilities: <b>[WPA2-PSK-CCMP][ESS]</b><br/>Frequency: <b>2437</b><br/>Timestamp: <b>1509110707000</b><br/>Date: <b>2017-10-27 16:25:07</b>]]></description><styleUrl>#red</styleUrl>
<Point>
<coordinates>34.80406649,32.16810519</coordinates></Point>
</Placemark>
<Placemark>
<name><![CDATA[HOTBOX2]]></name>
<description><![CDATA[BSSID: <b>7c:b7:33:2c:b9:21</b><br/>Capabilities: <b>[WPA-PSK-CCMP+TKIP][WPA2-PSK-CCMP+TKIP][ESS]</b><br/>Frequency: <b>2462</b><br/>Timestamp: <b>1509110511000</b><br/>Date: <b>2017-10-27 16:21:51</b>]]></description><styleUrl>#red</styleUrl>
<Point>
<coordinates>34.80126227,32.17183759</coordinates></Point>
</Placemark>
<Placemark>
<name><![CDATA[BezeqFree]]></name>
<description><![CDATA[BSSID: <b>06:ae:db:b1:ac:0d</b><br/>Capabilities: <b>[WPA2-PSK-CCMP][ESS]</b><br/>Frequency: <b>2462</b><br/>Timestamp: <b>1509110446000</b><br/>Date: <b>2017-10-27 16:20:46</b>]]></description><styleUrl>#red</styleUrl>
<Point>
<coordinates>34.80120414,32.16844882</coordinates></Point>
</Placemark>
<Placemark>
<name><![CDATA[770]]></name>
<description><![CDATA[BSSID: <b>14:ae:db:b1:ac:0d</b><br/>Capabilities: <b>[WPA2-PSK-CCMP][ESS]</b><br/>Frequency: <b>2462</b><br/>Timestamp: <b>1509110446000</b><br/>Date: <b>2017-10-27 16:20:46</b>]]></description><styleUrl>#red</styleUrl>
<Point>
<coordinates>34.80120414,32.16844882</coordinates></Point>
</Placemark>
<Placemark>
<name><![CDATA[HOTFiber-0869]]></name>
<description><![CDATA[BSSID: <b>f8:ab:05:47:be:01</b><br/>Capabilities: <b>[WPA-PSK-CCMP+TKIP][WPA2-PSK-CCMP+TKIP][ESS]</b><br/>Frequency: <b>2437</b><br/>Timestamp: <b>1509110641000</b><br/>Date: <b>2017-10-27 16:24:01</b>]]></description><styleUrl>#red</styleUrl>
<Point>
<coordinates>34.80206584,32.16785244</coordinates></Point>
</Placemark>
<Placemark>
<name><![CDATA[HOTBOX-E35E]]></name>
<description><![CDATA[BSSID: <b>d8:fb:5e:17:e3:64</b><br/>Capabilities: <b>[WPA-PSK-CCMP+TKIP][WPA2-PSK-CCMP+TKIP][ESS]</b><br/>Frequency: <b>2437</b><br/>Timestamp: <b>1509110797000</b><br/>Date: <b>2017-10-27 16:26:37</b>]]></description><styleUrl>#red</styleUrl>
<Point>
<coordinates>34.80921234,32.17324726</coordinates></Point>
</Placemark>
<Placemark>
<name><![CDATA[Rosaness]]></name>
<description><![CDATA[BSSID: <b>84:18:3a:1c:b7:1c</b><br/>Capabilities: <b>[WPA2-PSK-CCMP][ESS]</b><br/>Frequency: <b>5320</b><br/>Timestamp: <b>1509110496000</b><br/>Date: <b>2017-10-27 16:21:36</b>]]></description><styleUrl>#red</styleUrl>
<Point>
<coordinates>34.80087842,32.17094993</coordinates></Point>
</Placemark>
<Placemark>
<name><![CDATA[Serge_2.4]]></name>
<description><![CDATA[BSSID: <b>c4:a8:1d:12:62:55</b><br/>Capabilities: <b>[WPA2-PSK-CCMP][ESS]</b><br/>Frequency: <b>2462</b><br/>Timestamp: <b>1509110644000</b><br/>Date: <b>2017-10-27 16:24:04</b>]]></description><styleUrl>#red</styleUrl>
<Point>
<coordinates>34.80240578,32.16782073</coordinates></Point>
</Placemark>
<Placemark>
<name><![CDATA[Erez Man]]></name>
<description><![CDATA[BSSID: <b>e4:8d:8c:7f:3d:0d</b><br/>Capabilities: <b>[WPA-PSK-CCMP][WPA2-PSK-CCMP][ESS]</b><br/>Frequency: <b>2412</b><br/>Timestamp: <b>1509110883000</b><br/>Date: <b>2017-10-27 16:28:03</b>]]></description><styleUrl>#red</styleUrl>
<Point>
<coordinates>34.8100792,32.16776437</coordinates></Point>
</Placemark>
<Placemark>
<name><![CDATA[LEE1]]></name>
<description><![CDATA[BSSID: <b>14:ae:db:ba:2d:35</b><br/>Capabilities: <b>[WPA2-PSK-CCMP][ESS]</b><br/>Frequency: <b>2412</b><br/>Timestamp: <b>1509110454000</b><br/>Date: <b>2017-10-27 16:20:54</b>]]></description><styleUrl>#red</styleUrl>
<Point>
<coordinates>34.80047649,32.16851102</coordinates></Point>
</Placemark>
<Placemark>
<name><![CDATA[888Free]]></name>
<description><![CDATA[BSSID: <b>06:8d:db:6e:71:bf</b><br/>Capabilities: <b>[ESS]</b><br/>Frequency: <b>2412</b><br/>Timestamp: <b>1509110182000</b><br/>Date: <b>2017-10-27 16:16:22</b>]]></description><styleUrl>#green</styleUrl>
<Point>
<coordinates>34.80988697,32.16763949</coordinates></Point>
</Placemark>
<Placemark>
<name><![CDATA[Ste_2.4GHz]]></name>
<description><![CDATA[BSSID: <b>20:0c:c8:10:0c:23</b><br/>Capabilities: <b>[WPA2-PSK-CCMP][WPS][ESS]</b><br/>Frequency: <b>2452</b><br/>Timestamp: <b>1509110650000</b><br/>Date: <b>2017-10-27 16:24:10</b>]]></description><styleUrl>#red</styleUrl>
<Point>
<coordinates>34.8028197,32.16776054</coordinates></Point>
</Placemark>
<Placemark>
<name><![CDATA[urigil1]]></name>
<description><![CDATA[BSSID: <b>a0:ab:1b:5d:c2:60</b><br/>Capabilities: <b>[WPA2-PSK-CCMP][ESS]</b><br/>Frequency: <b>2457</b><br/>Timestamp: <b>1509110847000</b><br/>Date: <b>2017-10-27 16:27:27</b>]]></description><styleUrl>#red</styleUrl>
<Point>
<coordinates>34.81173835,32.17137454</coordinates></Point>
</Placemark>
<Placemark>
<name><![CDATA[Gold]]></name>
<description><![CDATA[BSSID: <b>a0:4f:d4:44:36:71</b><br/>Capabilities: <b>[WPA2-PSK-CCMP][ESS]</b><br/>Frequency: <b>2412</b><br/>Timestamp: <b>1509110647000</b><br/>Date: <b>2017-10-27 16:24:07</b>]]></description><styleUrl>#red</styleUrl>
<Point>
<coordinates>34.80266874,32.16777763</coordinates></Point>
</Placemark>
<Placemark>
<name><![CDATA[LIT]]></name>
<description><![CDATA[BSSID: <b>d8:fb:5e:18:49:70</b><br/>Capabilities: <b>[WPA-PSK-CCMP+TKIP][WPA2-PSK-CCMP+TKIP][ESS]</b><br/>Frequency: <b>2462</b><br/>Timestamp: <b>1509110797000</b><br/>Date: <b>2017-10-27 16:26:37</b>]]></description><styleUrl>#red</styleUrl>
<Point>
<coordinates>34.80921234,32.17324726</coordinates></Point>
</Placemark>
<Placemark>
<name><![CDATA[smartsell]]></name>
<description><![CDATA[BSSID: <b>78:e8:b6:69:2c:91</b><br/>Capabilities: <b>[WPA-PSK-CCMP+TKIP][WPA2-PSK-CCMP+TKIP][ESS]</b><br/>Frequency: <b>2412</b><br/>Timestamp: <b>1509110233000</b><br/>Date: <b>2017-10-27 16:17:13</b>]]></description><styleUrl>#red</styleUrl>
<Point>
<coordinates>34.80987698,32.16769734</coordinates></Point>
</Placemark>
<Placemark>
<name><![CDATA[daniel]]></name>
<description><![CDATA[BSSID: <b>d8:38:fc:1c:a6:38</b><br/>Capabilities: <b>[ESS]</b><br/>Frequency: <b>2412</b><br/>Timestamp: <b>1509110581000</b><br/>Date: <b>2017-10-27 16:23:01</b>]]></description><styleUrl>#green</styleUrl>
<Point>
<coordinates>34.80062195,32.17038651</coordinates></Point>
</Placemark>
<Placemark>
<name><![CDATA[gigi1932]]></name>
<description><![CDATA[BSSID: <b>8c:59:c3:a2:9d:69</b><br/>Capabilities: <b>[WPA2-PSK-CCMP][ESS]</b><br/>Frequency: <b>2462</b><br/>Timestamp: <b>1509110352000</b><br/>Date: <b>2017-10-27 16:19:12</b>]]></description><styleUrl>#red</styleUrl>
<Point>
<coordinates>34.80697148,32.16749167</coordinates></Point>
</Placemark>
<Placemark>
<name><![CDATA[HOTBOX-9A33]]></name>
<description><![CDATA[BSSID: <b>fc:b4:e6:d2:9a:39</b><br/>Capabilities: <b>[WPA-PSK-CCMP+TKIP][WPA2-PSK-CCMP+TKIP][ESS]</b><br/>Frequency: <b>2412</b><br/>Timestamp: <b>1509110446000</b><br/>Date: <b>2017-10-27 16:20:46</b>]]></description><styleUrl>#red</styleUrl>
<Point>
<coordinates>34.80120414,32.16844882</coordinates></Point>
</Placemark>
<Placemark>
<name><![CDATA[GOT]]></name>
<description><![CDATA[BSSID: <b>c8:be:19:11:b7:73</b><br/>Capabilities: <b>[WPA2-PSK-CCMP][ESS]</b><br/>Frequency: <b>2437</b><br/>Timestamp: <b>1509110550000</b><br/>Date: <b>2017-10-27 16:22:30</b>]]></description><styleUrl>#red</styleUrl>
<Point>
<coordinates>34.80118578,32.17182204</coordinates></Point>
</Placemark>
<Placemark>
<name><![CDATA[daniel]]></name>
<description><![CDATA[BSSID: <b>e8:1d:a8:04:fc:08</b><br/>Capabilities: <b>[ESS]</b><br/>Frequency: <b>2462</b><br/>Timestamp: <b>1509110584000</b><br/>Date: <b>2017-10-27 16:23:04</b>]]></description><styleUrl>#green</styleUrl>
<Point>
<coordinates>34.80053654,32.17014829</coordinates></Point>
</Placemark>
<Placemark>
<name><![CDATA[MiriTal]]></name>
<description><![CDATA[BSSID: <b>a0:4f:d4:3e:7c:31</b><br/>Capabilities: <b>[WPA2-PSK-CCMP][WPS][ESS]</b><br/>Frequency: <b>2412</b><br/>Timestamp: <b>1509110584000</b><br/>Date: <b>2017-10-27 16:23:04</b>]]></description><styleUrl>#red</styleUrl>
<Point>
<coordinates>34.80053654,32.17014829</coordinates></Point>
</Placemark>
<Placemark>
<name><![CDATA[DanAccadia]]></name>
<description><![CDATA[BSSID: <b>0c:f4:d5:1b:3f:68</b><br/>Capabilities: <b>[ESS]</b><br/>Frequency: <b>2462</b><br/>Timestamp: <b>1509110477000</b><br/>Date: <b>2017-10-27 16:21:17</b>]]></description><styleUrl>#green</styleUrl>
<Point>
<coordinates>34.8003408,32.16970586</coordinates></Point>
</Placemark>
<Placemark>
<name><![CDATA[preminger]]></name>
<description><![CDATA[BSSID: <b>c0:ac:54:f5:b1:84</b><br/>Capabilities: <b>[WPA-PSK-CCMP+TKIP][WPA2-PSK-CCMP+TKIP][ESS]</b><br/>Frequency: <b>2437</b><br/>Timestamp: <b>1509110647000</b><br/>Date: <b>2017-10-27 16:24:07</b>]]></description><styleUrl>#red</styleUrl>
<Point>
<coordinates>34.80266874,32.16777763</coordinates></Point>
</Placemark>
<Placemark>
<name><![CDATA[Guest Neetwork MM]]></name>
<description><![CDATA[BSSID: <b>94:f6:65:1b:b2:28</b><br/>Capabilities: <b>[WPA2-PSK-CCMP][ESS]</b><br/>Frequency: <b>2432</b><br/>Timestamp: <b>1509110886000</b><br/>Date: <b>2017-10-27 16:28:06</b>]]></description><styleUrl>#red</styleUrl>
<Point>
<coordinates>34.80992403,32.167615</coordinates></Point>
</Placemark>
<Placemark>
<name><![CDATA[GIdron2]]></name>
<description><![CDATA[BSSID: <b>00:10:f3:69:ea:f4</b><br/>Capabilities: <b>[WPA-PSK-CCMP+TKIP][WPA2-PSK-CCMP+TKIP][ESS]</b><br/>Frequency: <b>2437</b><br/>Timestamp: <b>1509110584000</b><br/>Date: <b>2017-10-27 16:23:04</b>]]></description><styleUrl>#red</styleUrl>
<Point>
<coordinates>34.80053654,32.17014829</coordinates></Point>
</Placemark>
<Placemark>
<name><![CDATA[tambourh]]></name>
<description><![CDATA[BSSID: <b>10:be:f5:3d:ac:54</b><br/>Capabilities: <b>[WPA2-PSK-CCMP][ESS]</b><br/>Frequency: <b>2452</b><br/>Timestamp: <b>1509110758000</b><br/>Date: <b>2017-10-27 16:25:58</b>]]></description><styleUrl>#red</styleUrl>
<Point>
<coordinates>34.80700602,32.17078967</coordinates></Point>
</Placemark>
<Placemark>
<name><![CDATA[Roikhel]]></name>
<description><![CDATA[BSSID: <b>9c:d6:43:23:99:91</b><br/>Capabilities: <b>[WPA2-PSK-CCMP][ESS]</b><br/>Frequency: <b>2437</b><br/>Timestamp: <b>1509110707000</b><br/>Date: <b>2017-10-27 16:25:07</b>]]></description><styleUrl>#red</styleUrl>
<Point>
<coordinates>34.80406649,32.16810519</coordinates></Point>
</Placemark>
<Placemark>
<name><![CDATA[Biana_n]]></name>
<description><![CDATA[BSSID: <b>14:ae:db:b2:8e:75</b><br/>Capabilities: <b>[WPA2-PSK-CCMP][ESS]</b><br/>Frequency: <b>2462</b><br/>Timestamp: <b>1509110713000</b><br/>Date: <b>2017-10-27 16:25:13</b>]]></description><styleUrl>#red</styleUrl>
<Point>
<coordinates>34.80501351,32.16799787</coordinates></Point>
</Placemark>
<Placemark>
<name><![CDATA[Logitech]]></name>
<description><![CDATA[BSSID: <b>d8:38:fc:5c:e6:58</b><br/>Capabilities: <b>[WPA2-PSK-CCMP+TKIP][ESS]</b><br/>Frequency: <b>2442</b><br/>Timestamp: <b>1509110584000</b><br/>Date: <b>2017-10-27 16:23:04</b>]]></description><styleUrl>#red</styleUrl>
<Point>
<coordinates>34.80053654,32.17014829</coordinates></Point>
</Placemark>
<Placemark>
<name><![CDATA[gregori120]]></name>
<description><![CDATA[BSSID: <b>f8:d1:11:35:00:4a</b><br/>Capabilities: <b>[WPA2-PSK-CCMP+TKIP][WPS][ESS]</b><br/>Frequency: <b>2437</b><br/>Timestamp: <b>1509110393000</b><br/>Date: <b>2017-10-27 16:19:53</b>]]></description><styleUrl>#red</styleUrl>
<Point>
<coordinates>34.80379573,32.16821204</coordinates></Point>
</Placemark>
<Placemark>
<name><![CDATA[MOSHE]]></name>
<description><![CDATA[BSSID: <b>16:0c:c3:ee:59:79</b><br/>Capabilities: <b>[WPA-PSK-CCMP+TKIP][WPA2-PSK-CCMP+TKIP][WPS][ESS]</b><br/>Frequency: <b>2462</b><br/>Timestamp: <b>1509110716000</b><br/>Date: <b>2017-10-27 16:25:16</b>]]></description><styleUrl>#red</styleUrl>
<Point>
<coordinates>34.80538989,32.16794147</coordinates></Point>
</Placemark>
<Placemark>
<name><![CDATA[888Free]]></name>
<description><![CDATA[BSSID: <b>06:8d:cb:6e:71:6d</b><br/>Capabilities: <b>[ESS]</b><br/>Frequency: <b>5220</b><br/>Timestamp: <b>1509110230000</b><br/>Date: <b>2017-10-27 16:17:10</b>]]></description><styleUrl>#green</styleUrl>
<Point>
<coordinates>34.80987711,32.16769749</coordinates></Point>
</Placemark>
<Placemark>
<name><![CDATA[simon]]></name>
<description><![CDATA[BSSID: <b>e4:6f:13:73:0a:c2</b><br/>Capabilities: <b>[WPA2-PSK-CCMP][ESS]</b><br/>Frequency: <b>2447</b><br/>Timestamp: <b>1509110167000</b><br/>Date: <b>2017-10-27 16:16:07</b>]]></description><styleUrl>#red</styleUrl>
<Point>
<coordinates>34.81030598,32.1682687</coordinates></Point>
</Placemark>
<Placemark>
<name><![CDATA[Howmanyistwo]]></name>
<description><![CDATA[BSSID: <b>74:da:38:50:77:f2</b><br/>Capabilities: <b>[WPA2-PSK-CCMP][ESS]</b><br/>Frequency: <b>2417</b><br/>Timestamp: <b>1509110182000</b><br/>Date: <b>2017-10-27 16:16:22</b>]]></description><styleUrl>#red</styleUrl>
<Point>
<coordinates>34.80988697,32.16763949</coordinates></Point>
</Placemark>
<Placemark>
<name><![CDATA[Bezeq Free RA583B]]></name>
<description><![CDATA[BSSID: <b>62:ff:d4:7b:ee:4f</b><br/>Capabilities: <b>[ESS]</b><br/>Frequency: <b>2412</b><br/>Timestamp: <b>1509110806000</b><br/>Date: <b>2017-10-27 16:26:46</b>]]></description><styleUrl>#green</styleUrl>
<Point>
<coordinates>34.81050125,32.17297854</coordinates></Point>
</Placemark>
<Placemark>
<name><![CDATA[SandyAndDanny]]></name>
<description><![CDATA[BSSID: <b>d0:0e:d9:26:e8:c5</b><br/>Capabilities: <b>[WPA2-PSK-CCMP][ESS]</b><br/>Frequency: <b>2447</b><br/>Timestamp: <b>1509110883000</b><br/>Date: <b>2017-10-27 16:28:03</b>]]></description><styleUrl>#red</styleUrl>
<Point>
<coordinates>34.8100792,32.16776437</coordinates></Point>
</Placemark>
<Placemark>
<name><![CDATA[HP-Print-45-Deskjet 4640 series]]></name>
<description><![CDATA[BSSID: <b>5c:b9:01:6a:8c:45</b><br/>Capabilities: <b>[ESS]</b><br/>Frequency: <b>2437</b><br/>Timestamp: <b>1509110617000</b><br/>Date: <b>2017-10-27 16:23:37</b>]]></description><styleUrl>#green</styleUrl>
<Point>
<coordinates>34.80011614,32.16840058</coordinates></Point>
</Placemark>
<Placemark>
<name><![CDATA[888Corp]]></name>
<description><![CDATA[BSSID: <b>0a:8d:db:6e:71:bf</b><br/>Capabilities: <b>[WPA2-EAP-CCMP][ESS]</b><br/>Frequency: <b>2412</b><br/>Timestamp: <b>1509110191000</b><br/>Date: <b>2017-10-27 16:16:31</b>]]></description><styleUrl>#red</styleUrl>
<Point>
<coordinates>34.80987929,32.16762928</coordinates></Point>
</Placemark>
<Placemark>
<name><![CDATA[Home2]]></name>
<description><![CDATA[BSSID: <b>ac:f1:df:9d:f7:91</b><br/>Capabilities: <b>[WPA2-PSK-CCMP][ESS]</b><br/>Frequency: <b>2462</b><br/>Timestamp: <b>1509110399000</b><br/>Date: <b>2017-10-27 16:19:59</b>]]></description><styleUrl>#red</styleUrl>
<Point>
<coordinates>34.80351026,32.16825198</coordinates></Point>
</Placemark>
<Placemark>
<name><![CDATA[gary-flat]]></name>
<description><![CDATA[BSSID: <b>28:c6:8e:37:ab:72</b><br/>Capabilities: <b>[WPA-PSK-TKIP][WPS][ESS]</b><br/>Frequency: <b>2462</b><br/>Timestamp: <b>1509110454000</b><br/>Date: <b>2017-10-27 16:20:54</b>]]></description><styleUrl>#red</styleUrl>
<Point>
<coordinates>34.80047649,32.16851102</coordinates></Point>
</Placemark>
<Placemark>
<name><![CDATA[TP-LINK-BET]]></name>
<description><![CDATA[BSSID: <b>f8:d1:11:ce:e5:e6</b><br/>Capabilities: <b>[WPS][ESS]</b><br/>Frequency: <b>2427</b><br/>Timestamp: <b>1509110850000</b><br/>Date: <b>2017-10-27 16:27:30</b>]]></description><styleUrl>#green</styleUrl>
<Point>
<coordinates>34.81157034,32.17104698</coordinates></Point>
</Placemark>
<Placemark>
<name><![CDATA[Bezeq Free]]></name>
<description><![CDATA[BSSID: <b>62:fc:af:9d:69:bf</b><br/>Capabilities: <b>[ESS]</b><br/>Frequency: <b>2412</b><br/>Timestamp: <b>1509110614000</b><br/>Date: <b>2017-10-27 16:23:34</b>]]></description><styleUrl>#green</styleUrl>
<Point>
<coordinates>34.80014154,32.16857669</coordinates></Point>
</Placemark>
<Placemark>
<name><![CDATA[MEIR_2.4]]></name>
<description><![CDATA[BSSID: <b>a0:4f:d4:2c:5e:11</b><br/>Capabilities: <b>[WPA2-PSK-CCMP][ESS]</b><br/>Frequency: <b>2412</b><br/>Timestamp: <b>1509110454000</b><br/>Date: <b>2017-10-27 16:20:54</b>]]></description><styleUrl>#red</styleUrl>
<Point>
<coordinates>34.80047649,32.16851102</coordinates></Point>
</Placemark>
<Placemark>
<name><![CDATA[Barda_2]]></name>
<description><![CDATA[BSSID: <b>74:da:38:56:ed:e0</b><br/>Capabilities: <b>[WPA2-PSK-CCMP-preauth][WPS][ESS]</b><br/>Frequency: <b>2412</b><br/>Timestamp: <b>1509110352000</b><br/>Date: <b>2017-10-27 16:19:12</b>]]></description><styleUrl>#red</styleUrl>
<Point>
<coordinates>34.80697148,32.16749167</coordinates></Point>
</Placemark>
<Placemark>
<name><![CDATA[zina 1932]]></name>
<description><![CDATA[BSSID: <b>c0:ac:54:f8:b3:93</b><br/>Capabilities: <b>[WPA-PSK-CCMP+TKIP][WPA2-PSK-CCMP+TKIP][ESS]</b><br/>Frequency: <b>2462</b><br/>Timestamp: <b>1509110390000</b><br/>Date: <b>2017-10-27 16:19:50</b>]]></description><styleUrl>#red</styleUrl>
<Point>
<coordinates>34.80414284,32.16815321</coordinates></Point>
</Placemark>
<Placemark>
<name><![CDATA[upstairs]]></name>
<description><![CDATA[BSSID: <b>d4:6e:0e:cf:bc:ca</b><br/>Capabilities: <b>[WPA2-PSK-CCMP][WPS][ESS]</b><br/>Frequency: <b>2437</b><br/>Timestamp: <b>1509110770000</b><br/>Date: <b>2017-10-27 16:26:10</b>]]></description><styleUrl>#red</styleUrl>
<Point>
<coordinates>34.80751328,32.17197198</coordinates></Point>
</Placemark>
<Placemark>
<name><![CDATA[TP-LINK_AAF0C0]]></name>
<description><![CDATA[BSSID: <b>c4:e9:84:aa:f0:c0</b><br/>Capabilities: <b>[WPA-PSK-CCMP+TKIP][WPA2-PSK-CCMP+TKIP][ESS]</b><br/>Frequency: <b>2412</b><br/>Timestamp: <b>1509110764000</b><br/>Date: <b>2017-10-27 16:26:04</b>]]></description><styleUrl>#red</styleUrl>
<Point>
<coordinates>34.8072607,32.17135389</coordinates></Point>
</Placemark>
<Placemark>
<name><![CDATA[Efrat Networks NC]]></name>
<description><![CDATA[BSSID: <b>00:1d:aa:34:1e:58</b><br/>Capabilities: <b>[WPA-PSK-CCMP+TKIP][WPA2-PSK-CCMP+TKIP][ESS]</b><br/>Frequency: <b>2462</b><br/>Timestamp: <b>1509110349000</b><br/>Date: <b>2017-10-27 16:19:09</b>]]></description><styleUrl>#red</styleUrl>
<Point>
<coordinates>34.80739313,32.16733646</coordinates></Point>
</Placemark>
<Placemark>
<name><![CDATA[Bhome-1845]]></name>
<description><![CDATA[BSSID: <b>ac:3f:a4:85:29:d8</b><br/>Capabilities: <b>[ESS]</b><br/>Frequency: <b>2412</b><br/>Timestamp: <b>1509110641000</b><br/>Date: <b>2017-10-27 16:24:01</b>]]></description><styleUrl>#green</styleUrl>
<Point>
<coordinates>34.80206584,32.16785244</coordinates></Point>
</Placemark>
<Placemark>
<name><![CDATA[shlomo1]]></name>
<description><![CDATA[BSSID: <b>00:8c:54:8f:59:51</b><br/>Capabilities: <b>[WPA2-PSK-CCMP][ESS]</b><br/>Frequency: <b>2437</b><br/>Timestamp: <b>1509110728000</b><br/>Date: <b>2017-10-27 16:25:28</b>]]></description><styleUrl>#red</styleUrl>
<Point>
<coordinates>34.80606514,32.167768</coordinates></Point>
</Placemark>
<Placemark>
<name><![CDATA[kaymeraQA]]></name>
<description><![CDATA[BSSID: <b>00:f6:63:3a:f4:80</b><br/>Capabilities: <b>[WPA-PSK-CCMP+TKIP][WPA2-PSK-CCMP][ESS][P2P]</b><br/>Frequency: <b>2412</b><br/>Timestamp: <b>1509110358000</b><br/>Date: <b>2017-10-27 16:19:18</b>]]></description><styleUrl>#red</styleUrl>
<Point>
<coordinates>34.80631515,32.16772332</coordinates></Point>
</Placemark>
<Placemark>
<name><![CDATA[HomeWi-Fi]]></name>
<description><![CDATA[BSSID: <b>64:70:02:c5:73:b0</b><br/>Capabilities: <b>[WPA-PSK-CCMP+TKIP][WPA2-PSK-CCMP+TKIP][WPS][ESS]</b><br/>Frequency: <b>2452</b><br/>Timestamp: <b>1509110800000</b><br/>Date: <b>2017-10-27 16:26:40</b>]]></description><styleUrl>#red</styleUrl>
<Point>
<coordinates>34.80965043,32.17314943</coordinates></Point>
</Placemark>
<Placemark>
<name><![CDATA[DIRECT-a8-HP M477 LaserJet]]></name>
<description><![CDATA[BSSID: <b>aa:6b:ad:04:c6:a8</b><br/>Capabilities: <b>[WPA2-PSK-CCMP][WPS][ESS][P2P]</b><br/>Frequency: <b>2437</b><br/>Timestamp: <b>1509110230000</b><br/>Date: <b>2017-10-27 16:17:10</b>]]></description><styleUrl>#red</styleUrl>
<Point>
<coordinates>34.80987711,32.16769749</coordinates></Point>
</Placemark>
<Placemark>
<name><![CDATA[DianneC]]></name>
<description><![CDATA[BSSID: <b>bc:f6:85:0b:6c:bf</b><br/>Capabilities: <b>[WPA2-PSK-CCMP][ESS]</b><br/>Frequency: <b>2437</b><br/>Timestamp: <b>1509110647000</b><br/>Date: <b>2017-10-27 16:24:07</b>]]></description><styleUrl>#red</styleUrl>
<Point>
<coordinates>34.80266874,32.16777763</coordinates></Point>
</Placemark>
<Placemark>
<name><![CDATA[AHRONEE]]></name>
<description><![CDATA[BSSID: <b>00:78:9e:fa:c7:d5</b><br/>Capabilities: <b>[WPA-PSK-CCMP+TKIP][WPA2-PSK-CCMP+TKIP][ESS]</b><br/>Frequency: <b>2412</b><br/>Timestamp: <b>1509110806000</b><br/>Date: <b>2017-10-27 16:26:46</b>]]></description><styleUrl>#red</styleUrl>
<Point>
<coordinates>34.81050125,32.17297854</coordinates></Point>
</Placemark>
<Placemark>
<name><![CDATA[HP-Print-33-Deskjet 4640 series]]></name>
<description><![CDATA[BSSID: <b>a0:48:1c:65:96:33</b><br/>Capabilities: <b>[WPA2-PSK-CCMP][ESS]</b><br/>Frequency: <b>2412</b><br/>Timestamp: <b>1509110620000</b><br/>Date: <b>2017-10-27 16:23:40</b>]]></description><styleUrl>#red</styleUrl>
<Point>
<coordinates>34.80009418,32.16820938</coordinates></Point>
</Placemark>
<Placemark>
<name><![CDATA[RIVKA]]></name>
<description><![CDATA[BSSID: <b>9c:d3:6d:bf:8a:64</b><br/>Capabilities: <b>[WPA2-PSK-CCMP][WPS][ESS]</b><br/>Frequency: <b>2452</b><br/>Timestamp: <b>1509110516000</b><br/>Date: <b>2017-10-27 16:21:56</b>]]></description><styleUrl>#red</styleUrl>
<Point>
<coordinates>34.8013815,32.17211148</coordinates></Point>
</Placemark>
<Placemark>
<name><![CDATA[U2I8L1M0X42]]></name>
<description><![CDATA[BSSID: <b>7c:b7:33:97:35:f1</b><br/>Capabilities: <b>[WPA-PSK-CCMP+TKIP][WPA2-PSK-CCMP+TKIP][ESS]</b><br/>Frequency: <b>2412</b><br/>Timestamp: <b>1509110850000</b><br/>Date: <b>2017-10-27 16:27:30</b>]]></description><styleUrl>#red</styleUrl>
<Point>
<coordinates>34.81157034,32.17104698</coordinates></Point>
</Placemark>
<Placemark>
<name><![CDATA[orange-inna]]></name>
<description><![CDATA[BSSID: <b>00:12:2a:11:1c:64</b><br/>Capabilities: <b>[WPA-PSK-CCMP+TKIP][WPA2-PSK-CCMP+TKIP][ESS]</b><br/>Frequency: <b>2462</b><br/>Timestamp: <b>1509110710000</b><br/>Date: <b>2017-10-27 16:25:10</b>]]></description><styleUrl>#red</styleUrl>
<Point>
<coordinates>34.80454278,32.1680484</coordinates></Point>
</Placemark>
<Placemark>
<name><![CDATA[SHURSH]]></name>
<description><![CDATA[BSSID: <b>00:22:3f:80:0d:4e</b><br/>Capabilities: <b>[WPA2-PSK-CCMP-preauth][ESS]</b><br/>Frequency: <b>2452</b><br/>Timestamp: <b>1509110713000</b><br/>Date: <b>2017-10-27 16:25:13</b>]]></description><styleUrl>#red</styleUrl>
<Point>
<coordinates>34.80501351,32.16799787</coordinates></Point>
</Placemark>
<Placemark>
<name><![CDATA[terry_ap]]></name>
<description><![CDATA[BSSID: <b>5c:83:8f:33:bd:68</b><br/>Capabilities: <b>[WPA2-PSK-CCMP][WPS][ESS]</b><br/>Frequency: <b>2412</b><br/>Timestamp: <b>1509110880000</b><br/>Date: <b>2017-10-27 16:28:00</b>]]></description><styleUrl>#red</styleUrl>
<Point>
<coordinates>34.81022347,32.16799923</coordinates></Point>
</Placemark>
<Placemark>
<name><![CDATA[Claes]]></name>
<description><![CDATA[BSSID: <b>a0:4f:d4:3d:16:01</b><br/>Capabilities: <b>[WPA2-PSK-CCMP][ESS]</b><br/>Frequency: <b>2412</b><br/>Timestamp: <b>1509110523000</b><br/>Date: <b>2017-10-27 16:22:03</b>]]></description><styleUrl>#red</styleUrl>
<Point>
<coordinates>34.80158775,32.17248602</coordinates></Point>
</Placemark>
<Placemark>
<name><![CDATA[BENY PUR]]></name>
<description><![CDATA[BSSID: <b>d8:fe:e3:03:c7:b1</b><br/>Capabilities: <b>[WPA2-PSK-CCMP][ESS]</b><br/>Frequency: <b>2437</b><br/>Timestamp: <b>1509110349000</b><br/>Date: <b>2017-10-27 16:19:09</b>]]></description><styleUrl>#red</styleUrl>
<Point>
<coordinates>34.80739313,32.16733646</coordinates></Point>
</Placemark>
<Placemark>
<name><![CDATA[888Guest]]></name>
<description><![CDATA[BSSID: <b>02:8d:cb:6e:71:6d</b><br/>Capabilities: <b>[ESS]</b><br/>Frequency: <b>5220</b><br/>Timestamp: <b>1509110230000</b><br/>Date: <b>2017-10-27 16:17:10</b>]]></description><styleUrl>#green</styleUrl>
<Point>
<coordinates>34.80987711,32.16769749</coordinates></Point>
</Placemark>
<Placemark>
<name><![CDATA[888Guest]]></name>
<description><![CDATA[BSSID: <b>02:8d:cb:6e:71:be</b><br/>Capabilities: <b>[ESS]</b><br/>Frequency: <b>5220</b><br/>Timestamp: <b>1509110233000</b><br/>Date: <b>2017-10-27 16:17:13</b>]]></description><styleUrl>#green</styleUrl>
<Point>
<coordinates>34.80987698,32.16769734</coordinates></Point>
</Placemark>
<Placemark>
<name><![CDATA[Daniela]]></name>
<description><![CDATA[BSSID: <b>14:ae:db:32:cf:42</b><br/>Capabilities: <b>[WPA2-PSK-CCMP][ESS]</b><br/>Frequency: <b>2442</b><br/>Timestamp: <b>1509110632000</b><br/>Date: <b>2017-10-27 16:23:52</b>]]></description><styleUrl>#red</styleUrl>
<Point>
<coordinates>34.80115899,32.16794123</coordinates></Point>
</Placemark>
<Placemark>
<name><![CDATA[rubinstein]]></name>
<description><![CDATA[BSSID: <b>e8:cc:18:ec:a6:64</b><br/>Capabilities: <b>[WEP][ESS]</b><br/>Frequency: <b>2437</b><br/>Timestamp: <b>1509110449000</b><br/>Date: <b>2017-10-27 16:20:49</b>]]></description><styleUrl>#yellow</styleUrl>
<Point>
<coordinates>34.80091936,32.16846448</coordinates></Point>
</Placemark>
<Placemark>
<name><![CDATA[HOTBOX-BOX-72A6]]></name>
<description><![CDATA[BSSID: <b>b4:ee:b4:ae:86:43</b><br/>Capabilities: <b>[WPA-PSK-CCMP+TKIP][WPA2-PSK-CCMP+TKIP][ESS]</b><br/>Frequency: <b>2412</b><br/>Timestamp: <b>1509110501000</b><br/>Date: <b>2017-10-27 16:21:41</b>]]></description><styleUrl>#red</styleUrl>
<Point>
<coordinates>34.80103883,32.17128287</coordinates></Point>
</Placemark>
<Placemark>
<name><![CDATA[HOTBOX-718A]]></name>
<description><![CDATA[BSSID: <b>c0:ac:54:f7:c6:78</b><br/>Capabilities: <b>[WPA-PSK-CCMP+TKIP][WPA2-PSK-CCMP+TKIP][ESS]</b><br/>Frequency: <b>2437</b><br/>Timestamp: <b>1509110496000</b><br/>Date: <b>2017-10-27 16:21:36</b>]]></description><styleUrl>#red</styleUrl>
<Point>
<coordinates>34.80087842,32.17094993</coordinates></Point>
</Placemark>
<Placemark>
<name><![CDATA[Banana]]></name>
<description><![CDATA[BSSID: <b>c0:ac:54:f5:d6:3d</b><br/>Capabilities: <b>[WPA-PSK-CCMP+TKIP][WPA2-PSK-CCMP+TKIP][ESS]</b><br/>Frequency: <b>2437</b><br/>Timestamp: <b>1509110806000</b><br/>Date: <b>2017-10-27 16:26:46</b>]]></description><styleUrl>#red</styleUrl>
<Point>
<coordinates>34.81050125,32.17297854</coordinates></Point>
</Placemark>
<Placemark>
<name><![CDATA[goral]]></name>
<description><![CDATA[BSSID: <b>e0:ce:c3:8b:d9:44</b><br/>Capabilities: <b>[WPA-PSK-CCMP+TKIP][WPA2-PSK-CCMP+TKIP][ESS]</b><br/>Frequency: <b>2437</b><br/>Timestamp: <b>1509110821000</b><br/>Date: <b>2017-10-27 16:27:01</b>]]></description><styleUrl>#red</styleUrl>
<Point>
<coordinates>34.81188778,32.17257307</coordinates></Point>
</Placemark>
<Placemark>
<name><![CDATA[Training Room]]></name>
<description><![CDATA[BSSID: <b>8e:15:44:ac:d4:e4</b><br/>Capabilities: <b>[WPA-PSK-CCMP+TKIP][WPA2-PSK-CCMP+TKIP][ESS]</b><br/>Frequency: <b>2437</b><br/>Timestamp: <b>1509110349000</b><br/>Date: <b>2017-10-27 16:19:09</b>]]></description><styleUrl>#red</styleUrl>
<Point>
<coordinates>34.80739313,32.16733646</coordinates></Point>
</Placemark>
<Placemark>
<name><![CDATA[Rosaness]]></name>
<description><![CDATA[BSSID: <b>84:18:3a:1c:b7:18</b><br/>Capabilities: <b>[WPA2-PSK-CCMP][ESS]</b><br/>Frequency: <b>2412</b><br/>Timestamp: <b>1509110575000</b><br/>Date: <b>2017-10-27 16:22:55</b>]]></description><styleUrl>#red</styleUrl>
<Point>
<coordinates>34.80080423,32.17091575</coordinates></Point>
</Placemark>
<Placemark>
<name><![CDATA[Yonch]]></name>
<description><![CDATA[BSSID: <b>10:be:f5:43:ab:ae</b><br/>Capabilities: <b>[WPA2-PSK-CCMP][ESS]</b><br/>Frequency: <b>2457</b><br/>Timestamp: <b>1509110535000</b><br/>Date: <b>2017-10-27 16:22:15</b>]]></description><styleUrl>#red</styleUrl>
<Point>
<coordinates>34.80146374,32.17246041</coordinates></Point>
</Placemark>
<Placemark>
<name><![CDATA[irit]]></name>
<description><![CDATA[BSSID: <b>c0:ac:54:f7:82:21</b><br/>Capabilities: <b>[WPA-PSK-CCMP+TKIP][WPA2-PSK-CCMP+TKIP][ESS]</b><br/>Frequency: <b>2462</b><br/>Timestamp: <b>1509110390000</b><br/>Date: <b>2017-10-27 16:19:50</b>]]></description><styleUrl>#red</styleUrl>
<Point>
<coordinates>34.80414284,32.16815321</coordinates></Point>
</Placemark>
<Placemark>
<name><![CDATA[Partner-4G-86E5]]></name>
<description><![CDATA[BSSID: <b>b0:89:00:d8:86:e5</b><br/>Capabilities: <b>[WPA2-PSK-CCMP][ESS]</b><br/>Frequency: <b>2457</b><br/>Timestamp: <b>1509110719000</b><br/>Date: <b>2017-10-27 16:25:19</b>]]></description><styleUrl>#red</styleUrl>
<Point>
<coordinates>34.80562835,32.16787842</coordinates></Point>
</Placemark>
<Placemark>
<name><![CDATA[HOTBOX-A8E3]]></name>
<description><![CDATA[BSSID: <b>08:6a:0a:22:a8:e9</b><br/>Capabilities: <b>[WPA-PSK-CCMP+TKIP][WPA2-PSK-CCMP+TKIP][ESS]</b><br/>Frequency: <b>2412</b><br/>Timestamp: <b>1509110569000</b><br/>Date: <b>2017-10-27 16:22:49</b>]]></description><styleUrl>#red</styleUrl>
<Point>
<coordinates>34.80097018,32.17132967</coordinates></Point>
</Placemark>
<Placemark>
<name><![CDATA[HOTBOX-3A94]]></name>
<description><![CDATA[BSSID: <b>c0:ac:54:f8:0c:1f</b><br/>Capabilities: <b>[WPA-PSK-CCMP+TKIP][WPA2-PSK-CCMP+TKIP][ESS]</b><br/>Frequency: <b>2462</b><br/>Timestamp: <b>1509110707000</b><br/>Date: <b>2017-10-27 16:25:07</b>]]></description><styleUrl>#red</styleUrl>
<Point>
<coordinates>34.80406649,32.16810519</coordinates></Point>
</Placemark>
<Placemark>
<name><![CDATA[HOTFiber-2017]]></name>
<description><![CDATA[BSSID: <b>18:1e:78:86:00:63</b><br/>Capabilities: <b>[WPA-PSK-CCMP+TKIP][WPA2-PSK-CCMP+TKIP][ESS]</b><br/>Frequency: <b>2412</b><br/>Timestamp: <b>1509110358000</b><br/>Date: <b>2017-10-27 16:19:18</b>]]></description><styleUrl>#red</styleUrl>
<Point>
<coordinates>34.80631515,32.16772332</coordinates></Point>
</Placemark>
<Placemark>
<name><![CDATA[DIRECT-A5-HP DeskJet 4670 series]]></name>
<description><![CDATA[BSSID: <b>fc:3f:db:7e:60:a6</b><br/>Capabilities: <b>[WPA2-PSK-CCMP][WPS][ESS]</b><br/>Frequency: <b>2457</b><br/>Timestamp: <b>1509110152000</b><br/>Date: <b>2017-10-27 16:15:52</b>]]></description><styleUrl>#red</styleUrl>
<Point>
<coordinates>34.8109599,32.16874744</coordinates></Point>
</Placemark>
<Placemark>
<name><![CDATA[]]></name>
<description><![CDATA[BSSID: <b>0c:f4:d5:5b:49:38</b><br/>Capabilities: <b>[WPA2-PSK-CCMP][ESS]</b><br/>Frequency: <b>2442</b><br/>Timestamp: <b>1509110635000</b><br/>Date: <b>2017-10-27 16:23:55</b>]]></description><styleUrl>#red</styleUrl>
<Point>
<coordinates>34.80145366,32.16791664</coordinates></Point>
</Placemark>
<Placemark>
<name><![CDATA[DIRECT-CJM2070 Series]]></name>
<description><![CDATA[BSSID: <b>86:25:19:02:7e:a8</b><br/>Capabilities: <b>[WPA2-PSK-CCMP][WPS-AUTH][ESS]</b><br/>Frequency: <b>2462</b><br/>Timestamp: <b>1509110806000</b><br/>Date: <b>2017-10-27 16:26:46</b>]]></description><styleUrl>#red</styleUrl>
<Point>
<coordinates>34.81050125,32.17297854</coordinates></Point>
</Placemark>
<Placemark>
<name><![CDATA[spielman]]></name>
<description><![CDATA[BSSID: <b>7c:b7:33:2b:c4:52</b><br/>Capabilities: <b>[WPA-PSK-CCMP+TKIP][WPA2-PSK-CCMP+TKIP][ESS]</b><br/>Frequency: <b>2462</b><br/>Timestamp: <b>1509110883000</b><br/>Date: <b>2017-10-27 16:28:03</b>]]></description><styleUrl>#red</styleUrl>
<Point>
<coordinates>34.8100792,32.16776437</coordinates></Point>
</Placemark>
<Placemark>
<name><![CDATA[DIRECT-24-HP OfficeJet Pro 6960]]></name>
<description><![CDATA[BSSID: <b>98:e7:f4:b5:bc:25</b><br/>Capabilities: <b>[WPA2-PSK-CCMP][WPS][ESS]</b><br/>Frequency: <b>2412</b><br/>Timestamp: <b>1509110791000</b><br/>Date: <b>2017-10-27 16:26:31</b>]]></description><styleUrl>#red</styleUrl>
<Point>
<coordinates>34.80847679,32.17337685</coordinates></Point>
</Placemark>
<Placemark>
<name><![CDATA[Rosaness]]></name>
<description><![CDATA[BSSID: <b>84:18:3a:1d:3b:b8</b><br/>Capabilities: <b>[WPA2-PSK-CCMP][ESS]</b><br/>Frequency: <b>2462</b><br/>Timestamp: <b>1509110587000</b><br/>Date: <b>2017-10-27 16:23:07</b>]]></description><styleUrl>#red</styleUrl>
<Point>
<coordinates>34.80050789,32.17006781</coordinates></Point>
</Placemark>
<Placemark>
<name><![CDATA[dlink]]></name>
<description><![CDATA[BSSID: <b>1c:bd:b9:e7:5b:a0</b><br/>Capabilities: <b>[WPA-PSK-TKIP][ESS]</b><br/>Frequency: <b>2437</b><br/>Timestamp: <b>1509110520000</b><br/>Date: <b>2017-10-27 16:22:00</b>]]></description><styleUrl>#red</styleUrl>
<Point>
<coordinates>34.80147664,32.17235211</coordinates></Point>
</Placemark>
<Placemark>
<name><![CDATA[Shani - Green]]></name>
<description><![CDATA[BSSID: <b>54:b8:0a:34:78:98</b><br/>Capabilities: <b>[WPA-PSK-CCMP+TKIP][WPA2-PSK-CCMP+TKIP][ESS]</b><br/>Frequency: <b>5260</b><br/>Timestamp: <b>1509110853000</b><br/>Date: <b>2017-10-27 16:27:33</b>]]></description><styleUrl>#red</styleUrl>
<Point>
<coordinates>34.81143093,32.17074449</coordinates></Point>
</Placemark>
<Placemark>
<name><![CDATA[IDO]]></name>
<description><![CDATA[BSSID: <b>c4:e9:84:27:0c:aa</b><br/>Capabilities: <b>[WPA2-PSK-CCMP][WPS][ESS]</b><br/>Frequency: <b>2462</b><br/>Timestamp: <b>1509110358000</b><br/>Date: <b>2017-10-27 16:19:18</b>]]></description><styleUrl>#red</styleUrl>
<Point>
<coordinates>34.80631515,32.16772332</coordinates></Point>
</Placemark>
<Placemark>
<name><![CDATA[Benedicte]]></name>
<description><![CDATA[BSSID: <b>c0:ff:d4:7b:ee:4e</b><br/>Capabilities: <b>[WPA2-PSK-CCMP][WPS][ESS]</b><br/>Frequency: <b>2412</b><br/>Timestamp: <b>1509110806000</b><br/>Date: <b>2017-10-27 16:26:46</b>]]></description><styleUrl>#red</styleUrl>
<Point>
<coordinates>34.81050125,32.17297854</coordinates></Point>
</Placemark>
<Placemark>
<name><![CDATA[HP-Print-a2-LaserJet 400 color]]></name>
<description><![CDATA[BSSID: <b>e4:d5:3d:7d:d6:a2</b><br/>Capabilities: <b>[ESS]</b><br/>Frequency: <b>2437</b><br/>Timestamp: <b>1509110167000</b><br/>Date: <b>2017-10-27 16:16:07</b>]]></description><styleUrl>#green</styleUrl>
<Point>
<coordinates>34.81030598,32.1682687</coordinates></Point>
</Placemark>
<Placemark>
<name><![CDATA[margopharma]]></name>
<description><![CDATA[BSSID: <b>1c:af:f7:6f:07:93</b><br/>Capabilities: <b>[WEP][ESS]</b><br/>Frequency: <b>2437</b><br/>Timestamp: <b>1509110641000</b><br/>Date: <b>2017-10-27 16:24:01</b>]]></description><styleUrl>#yellow</styleUrl>
<Point>
<coordinates>34.80206584,32.16785244</coordinates></Point>
</Placemark>
<Placemark>
<name><![CDATA[Casa1]]></name>
<description><![CDATA[BSSID: <b>f4:6b:ef:e2:2c:1f</b><br/>Capabilities: <b>[WPA-PSK-CCMP+TKIP][WPA2-PSK-CCMP+TKIP][ESS]</b><br/>Frequency: <b>2462</b><br/>Timestamp: <b>1509110355000</b><br/>Date: <b>2017-10-27 16:19:15</b>]]></description><styleUrl>#red</styleUrl>
<Point>
<coordinates>34.80660841,32.16762402</coordinates></Point>
</Placemark>
<Placemark>
<name><![CDATA[HOTBOX-AB52]]></name>
<description><![CDATA[BSSID: <b>90:8d:78:e4:ab:7f</b><br/>Capabilities: <b>[WPA-PSK-CCMP+TKIP][WPA2-PSK-CCMP+TKIP][WPS][ESS]</b><br/>Frequency: <b>2462</b><br/>Timestamp: <b>1509110641000</b><br/>Date: <b>2017-10-27 16:24:01</b>]]></description><styleUrl>#red</styleUrl>
<Point>
<coordinates>34.80206584,32.16785244</coordinates></Point>
</Placemark>
<Placemark>
<name><![CDATA[ZEISS_YEHUDA]]></name>
<description><![CDATA[BSSID: <b>00:1d:aa:fb:1f:b0</b><br/>Capabilities: <b>[WPA-PSK-CCMP+TKIP][WPA2-PSK-CCMP+TKIP][WPS][ESS]</b><br/>Frequency: <b>2437</b><br/>Timestamp: <b>1509110874000</b><br/>Date: <b>2017-10-27 16:27:54</b>]]></description><styleUrl>#red</styleUrl>
<Point>
<coordinates>34.81046488,32.16860304</coordinates></Point>
</Placemark>
<Placemark>
<name><![CDATA[  InnovationEndeavors]]></name>
<description><![CDATA[BSSID: <b>74:da:38:a9:1c:df</b><br/>Capabilities: <b>[WPA2-PSK-CCMP][ESS]</b><br/>Frequency: <b>2427</b><br/>Timestamp: <b>1509110877000</b><br/>Date: <b>2017-10-27 16:27:57</b>]]></description><styleUrl>#red</styleUrl>
<Point>
<coordinates>34.81035666,32.16828928</coordinates></Point>
</Placemark>
<Placemark>
<name><![CDATA[HOTBOX-E99C]]></name>
<description><![CDATA[BSSID: <b>6c:2e:85:fe:95:f7</b><br/>Capabilities: <b>[WPA-PSK-CCMP+TKIP][WPA2-PSK-CCMP+TKIP][ESS]</b><br/>Frequency: <b>2412</b><br/>Timestamp: <b>1509110544000</b><br/>Date: <b>2017-10-27 16:22:24</b>]]></description><styleUrl>#red</styleUrl>
<Point>
<coordinates>34.80124727,32.17185891</coordinates></Point>
</Placemark>
<Placemark>
<name><![CDATA[888Corp]]></name>
<description><![CDATA[BSSID: <b>0a:8d:db:6e:71:be</b><br/>Capabilities: <b>[WPA2-EAP-CCMP][ESS]</b><br/>Frequency: <b>2462</b><br/>Timestamp: <b>1509110206000</b><br/>Date: <b>2017-10-27 16:16:46</b>]]></description><styleUrl>#red</styleUrl>
<Point>
<coordinates>34.80987825,32.16766611</coordinates></Point>
</Placemark>
<Placemark>
<name><![CDATA[HOTBOX-C85E]]></name>
<description><![CDATA[BSSID: <b>7c:03:4c:ff:28:2c</b><br/>Capabilities: <b>[WPA-PSK-CCMP+TKIP][WPA2-PSK-CCMP+TKIP][ESS]</b><br/>Frequency: <b>2437</b><br/>Timestamp: <b>1509110644000</b><br/>Date: <b>2017-10-27 16:24:04</b>]]></description><styleUrl>#red</styleUrl>
<Point>
<coordinates>34.80240578,32.16782073</coordinates></Point>
</Placemark>
<Placemark>
<name><![CDATA[DIRECT-54-HP OfficeJet 3830]]></name>
<description><![CDATA[BSSID: <b>30:e1:71:fc:37:55</b><br/>Capabilities: <b>[WPA2-PSK-CCMP][WPS][ESS]</b><br/>Frequency: <b>2417</b><br/>Timestamp: <b>1509110737000</b><br/>Date: <b>2017-10-27 16:25:37</b>]]></description><styleUrl>#red</styleUrl>
<Point>
<coordinates>34.80626215,32.16860202</coordinates></Point>
</Placemark>
<Placemark>
<name><![CDATA[forestisthebest]]></name>
<description><![CDATA[BSSID: <b>c8:d7:19:da:03:16</b><br/>Capabilities: <b>[WPA-PSK-CCMP+TKIP][WPA2-PSK-CCMP+TKIP][WPS][ESS]</b><br/>Frequency: <b>2412</b><br/>Timestamp: <b>1509110883000</b><br/>Date: <b>2017-10-27 16:28:03</b>]]></description><styleUrl>#red</styleUrl>
<Point>
<coordinates>34.8100792,32.16776437</coordinates></Point>
</Placemark>
<Placemark>
<name><![CDATA[annita]]></name>
<description><![CDATA[BSSID: <b>7c:b7:33:be:e3:b6</b><br/>Capabilities: <b>[WPA-PSK-CCMP+TKIP][WPA2-PSK-CCMP+TKIP][ESS]</b><br/>Frequency: <b>2462</b><br/>Timestamp: <b>1509110496000</b><br/>Date: <b>2017-10-27 16:21:36</b>]]></description><styleUrl>#red</styleUrl>
<Point>
<coordinates>34.80087842,32.17094993</coordinates></Point>
</Placemark>
<Placemark>
<name><![CDATA[LRWN]]></name>
<description><![CDATA[BSSID: <b>ec:8c:a2:09:dd:48</b><br/>Capabilities: <b>[WPA2-PSK-CCMP][ESS]</b><br/>Frequency: <b>2437</b><br/>Timestamp: <b>1509110182000</b><br/>Date: <b>2017-10-27 16:16:22</b>]]></description><styleUrl>#red</styleUrl>
<Point>
<coordinates>34.80988697,32.16763949</coordinates></Point>
</Placemark>
<Placemark>
<name><![CDATA[Dan38]]></name>
<description><![CDATA[BSSID: <b>e8:fc:af:99:22:43</b><br/>Capabilities: <b>[WPA2-PSK-CCMP][WPS][ESS]</b><br/>Frequency: <b>2412</b><br/>Timestamp: <b>1509110818000</b><br/>Date: <b>2017-10-27 16:26:58</b>]]></description><styleUrl>#red</styleUrl>
<Point>
<coordinates>34.81166081,32.17262741</coordinates></Point>
</Placemark>
<Placemark>
<name><![CDATA[huglin home 2.4GHz]]></name>
<description><![CDATA[BSSID: <b>70:62:b8:30:e8:df</b><br/>Capabilities: <b>[WEP][ESS]</b><br/>Frequency: <b>2412</b><br/>Timestamp: <b>1509110516000</b><br/>Date: <b>2017-10-27 16:21:56</b>]]></description><styleUrl>#yellow</styleUrl>
<Point>
<coordinates>34.8013815,32.17211148</coordinates></Point>
</Placemark>
<Placemark>
<name><![CDATA[IGOR]]></name>
<description><![CDATA[BSSID: <b>14:ae:db:b5:1b:cd</b><br/>Capabilities: <b>[WPA2-PSK-CCMP][ESS]</b><br/>Frequency: <b>2437</b><br/>Timestamp: <b>1509110719000</b><br/>Date: <b>2017-10-27 16:25:19</b>]]></description><styleUrl>#red</styleUrl>
<Point>
<coordinates>34.80562835,32.16787842</coordinates></Point>
</Placemark>
<Placemark>
<name><![CDATA[Grosman_sec]]></name>
<description><![CDATA[BSSID: <b>c4:a8:1d:13:61:b5</b><br/>Capabilities: <b>[WPA-PSK-CCMP+TKIP][ESS]</b><br/>Frequency: <b>2412</b><br/>Timestamp: <b>1509110399000</b><br/>Date: <b>2017-10-27 16:19:59</b>]]></description><styleUrl>#red</styleUrl>
<Point>
<coordinates>34.80351026,32.16825198</coordinates></Point>
</Placemark>
<Placemark>
<name><![CDATA[HOTFiber-A53E]]></name>
<description><![CDATA[BSSID: <b>7c:b7:33:a1:7e:98</b><br/>Capabilities: <b>[WPA-PSK-CCMP+TKIP][WPA2-PSK-CCMP+TKIP][ESS]</b><br/>Frequency: <b>2462</b><br/>Timestamp: <b>1509110868000</b><br/>Date: <b>2017-10-27 16:27:48</b>]]></description><styleUrl>#red</styleUrl>
<Point>
<coordinates>34.81069134,32.16925256</coordinates></Point>
</Placemark>
<Placemark>
<name><![CDATA[888Corp]]></name>
<description><![CDATA[BSSID: <b>0a:8d:db:6e:71:13</b><br/>Capabilities: <b>[WPA2-EAP-CCMP][ESS]</b><br/>Frequency: <b>2412</b><br/>Timestamp: <b>1509110883000</b><br/>Date: <b>2017-10-27 16:28:03</b>]]></description><styleUrl>#red</styleUrl>
<Point>
<coordinates>34.8100792,32.16776437</coordinates></Point>
</Placemark>
<Placemark>
<name><![CDATA[YamNadlan]]></name>
<description><![CDATA[BSSID: <b>34:8a:ae:ff:c0:96</b><br/>Capabilities: <b>[WPA-PSK-CCMP+TKIP][WPA2-PSK-CCMP+TKIP][ESS]</b><br/>Frequency: <b>2412</b><br/>Timestamp: <b>1509110764000</b><br/>Date: <b>2017-10-27 16:26:04</b>]]></description><styleUrl>#red</styleUrl>
<Point>
<coordinates>34.8072607,32.17135389</coordinates></Point>
</Placemark>
<Placemark>
<name><![CDATA[mika1]]></name>
<description><![CDATA[BSSID: <b>c4:12:f5:fb:c0:3e</b><br/>Capabilities: <b>[WPA2-PSK-CCMP][ESS]</b><br/>Frequency: <b>2412</b><br/>Timestamp: <b>1509110859000</b><br/>Date: <b>2017-10-27 16:27:39</b>]]></description><styleUrl>#red</styleUrl>
<Point>
<coordinates>34.81109731,32.17017837</coordinates></Point>
</Placemark>
<Placemark>
<name><![CDATA[bz18073460]]></name>
<description><![CDATA[BSSID: <b>14:ae:db:c4:9f:9a</b><br/>Capabilities: <b>[WPA2-PSK-CCMP][ESS]</b><br/>Frequency: <b>2457</b><br/>Timestamp: <b>1509110449000</b><br/>Date: <b>2017-10-27 16:20:49</b>]]></description><styleUrl>#red</styleUrl>
<Point>
<coordinates>34.80091936,32.16846448</coordinates></Point>
</Placemark>
<Placemark>
<name><![CDATA[kenley-up]]></name>
<description><![CDATA[BSSID: <b>88:dc:96:3b:f5:e0</b><br/>Capabilities: <b>[WPA2-PSK-CCMP][ESS]</b><br/>Frequency: <b>2462</b><br/>Timestamp: <b>1509110847000</b><br/>Date: <b>2017-10-27 16:27:27</b>]]></description><styleUrl>#red</styleUrl>
<Point>
<coordinates>34.81173835,32.17137454</coordinates></Point>
</Placemark>
<Placemark>
<name><![CDATA[EDIMAX]]></name>
<description><![CDATA[BSSID: <b>80:1f:02:93:bb:be</b><br/>Capabilities: <b>[WPA-PSK-TKIP][ESS]</b><br/>Frequency: <b>2462</b><br/>Timestamp: <b>1509110581000</b><br/>Date: <b>2017-10-27 16:23:01</b>]]></description><styleUrl>#red</styleUrl>
<Point>
<coordinates>34.80062195,32.17038651</coordinates></Point>
</Placemark>
<Placemark>
<name><![CDATA[Bezeq Free]]></name>
<description><![CDATA[BSSID: <b>5a:b0:ce:33:a4:d6</b><br/>Capabilities: <b>[ESS]</b><br/>Frequency: <b>2412</b><br/>Timestamp: <b>1509110728000</b><br/>Date: <b>2017-10-27 16:25:28</b>]]></description><styleUrl>#green</styleUrl>
<Point>
<coordinates>34.80606514,32.167768</coordinates></Point>
</Placemark>
<Placemark>
<name><![CDATA[netbox]]></name>
<description><![CDATA[BSSID: <b>d0:d4:12:65:19:a2</b><br/>Capabilities: <b>[WPA2-PSK-CCMP][ESS]</b><br/>Frequency: <b>2412</b><br/>Timestamp: <b>1509110880000</b><br/>Date: <b>2017-10-27 16:28:00</b>]]></description><styleUrl>#red</styleUrl>
<Point>
<coordinates>34.81022347,32.16799923</coordinates></Point>
</Placemark>
<Placemark>
<name><![CDATA[Dodo]]></name>
<description><![CDATA[BSSID: <b>74:da:38:a1:8b:db</b><br/>Capabilities: <b>[WPA2-PSK-CCMP][ESS]</b><br/>Frequency: <b>2432</b><br/>Timestamp: <b>1509110779000</b><br/>Date: <b>2017-10-27 16:26:19</b>]]></description><styleUrl>#red</styleUrl>
<Point>
<coordinates>34.80783579,32.17276011</coordinates></Point>
</Placemark>
<Placemark>
<name><![CDATA[TP-LINK_UKTVWATCH_EXT]]></name>
<description><![CDATA[BSSID: <b>8a:1b:5e:83:d7:c2</b><br/>Capabilities: <b>[WPA2-PSK-CCMP][WPS][ESS]</b><br/>Frequency: <b>2447</b><br/>Timestamp: <b>1509110713000</b><br/>Date: <b>2017-10-27 16:25:13</b>]]></description><styleUrl>#red</styleUrl>
<Point>
<coordinates>34.80501351,32.16799787</coordinates></Point>
</Placemark>
<Placemark>
<name><![CDATA[HOTBOX-1]]></name>
<description><![CDATA[BSSID: <b>c0:ac:54:f7:13:e3</b><br/>Capabilities: <b>[WPA-PSK-CCMP+TKIP][WPA2-PSK-CCMP+TKIP][ESS]</b><br/>Frequency: <b>2437</b><br/>Timestamp: <b>1509110641000</b><br/>Date: <b>2017-10-27 16:24:01</b>]]></description><styleUrl>#red</styleUrl>
<Point>
<coordinates>34.80206584,32.16785244</coordinates></Point>
</Placemark>
<Placemark>
<name><![CDATA[3Com]]></name>
<description><![CDATA[BSSID: <b>00:0f:cb:b5:2e:78</b><br/>Capabilities: <b>[WEP][ESS]</b><br/>Frequency: <b>2462</b><br/>Timestamp: <b>1509110883000</b><br/>Date: <b>2017-10-27 16:28:03</b>]]></description><styleUrl>#yellow</styleUrl>
<Point>
<coordinates>34.8100792,32.16776437</coordinates></Point>
</Placemark>
<Placemark>
<name><![CDATA[BezeqFree]]></name>
<description><![CDATA[BSSID: <b>14:af:db:30:c9:d2</b><br/>Capabilities: <b>[WPA2-PSK-CCMP][ESS]</b><br/>Frequency: <b>2417</b><br/>Timestamp: <b>1509110454000</b><br/>Date: <b>2017-10-27 16:20:54</b>]]></description><styleUrl>#red</styleUrl>
<Point>
<coordinates>34.80047649,32.16851102</coordinates></Point>
</Placemark>
<Placemark>
<name><![CDATA[rfi]]></name>
<description><![CDATA[BSSID: <b>a0:63:91:78:40:f2</b><br/>Capabilities: <b>[WPA2-PSK-CCMP][WPS][ESS]</b><br/>Frequency: <b>2427</b><br/>Timestamp: <b>1509110749000</b><br/>Date: <b>2017-10-27 16:25:49</b>]]></description><styleUrl>#red</styleUrl>
<Point>
<coordinates>34.80660254,32.16985096</coordinates></Point>
</Placemark>
<Placemark>
<name><![CDATA[]]></name>
<description><![CDATA[BSSID: <b>02:8d:db:6e:71:da</b><br/>Capabilities: <b>[ESS]</b><br/>Frequency: <b>2462</b><br/>Timestamp: <b>1509110300000</b><br/>Date: <b>2017-10-27 16:18:20</b>]]></description><styleUrl>#green</styleUrl>
<Point>
<coordinates>34.80989229,32.16764889</coordinates></Point>
</Placemark>
<Placemark>
<name><![CDATA[Rainbow Medical]]></name>
<description><![CDATA[BSSID: <b>90:6c:ac:f3:6a:69</b><br/>Capabilities: <b>[WPA2-PSK-CCMP-preauth][ESS]</b><br/>Frequency: <b>2432</b><br/>Timestamp: <b>1509110322000</b><br/>Date: <b>2017-10-27 16:18:42</b>]]></description><styleUrl>#red</styleUrl>
<Point>
<coordinates>34.80953943,32.16739532</coordinates></Point>
</Placemark>
<Placemark>
<name><![CDATA[GRATCH]]></name>
<description><![CDATA[BSSID: <b>04:bd:88:00:e1:50</b><br/>Capabilities: <b>[WPA2-PSK+FT/PSK-CCMP][ESS]</b><br/>Frequency: <b>5180</b><br/>Timestamp: <b>1509110449000</b><br/>Date: <b>2017-10-27 16:20:49</b>]]></description><styleUrl>#red</styleUrl>
<Point>
<coordinates>34.80091936,32.16846448</coordinates></Point>
</Placemark>
<Placemark>
<name><![CDATA[smartsell]]></name>
<description><![CDATA[BSSID: <b>78:e8:b6:69:2a:e9</b><br/>Capabilities: <b>[WPA-PSK-CCMP+TKIP][WPA2-PSK-CCMP+TKIP][ESS]</b><br/>Frequency: <b>2462</b><br/>Timestamp: <b>1509110230000</b><br/>Date: <b>2017-10-27 16:17:10</b>]]></description><styleUrl>#red</styleUrl>
<Point>
<coordinates>34.80987711,32.16769749</coordinates></Point>
</Placemark>
<Placemark>
<name><![CDATA[HOTBOX-3DFD]]></name>
<description><![CDATA[BSSID: <b>b4:ee:b4:a7:3e:03</b><br/>Capabilities: <b>[WPA-PSK-CCMP+TKIP][WPA2-PSK-CCMP+TKIP][ESS]</b><br/>Frequency: <b>2412</b><br/>Timestamp: <b>1509110647000</b><br/>Date: <b>2017-10-27 16:24:07</b>]]></description><styleUrl>#red</styleUrl>
<Point>
<coordinates>34.80266874,32.16777763</coordinates></Point>
</Placemark>
<Placemark>
<name><![CDATA[moka]]></name>
<description><![CDATA[BSSID: <b>a4:2b:8c:9d:20:f6</b><br/>Capabilities: <b>[WPA2-PSK-CCMP][WPS][ESS]</b><br/>Frequency: <b>2412</b><br/>Timestamp: <b>1509110803000</b><br/>Date: <b>2017-10-27 16:26:43</b>]]></description><styleUrl>#red</styleUrl>
<Point>
<coordinates>34.81011613,32.17306255</coordinates></Point>
</Placemark>
<Placemark>
<name><![CDATA[Bezeq Free 0a5352]]></name>
<description><![CDATA[BSSID: <b>62:a3:86:0a:53:52</b><br/>Capabilities: <b>[ESS]</b><br/>Frequency: <b>2437</b><br/>Timestamp: <b>1509110608000</b><br/>Date: <b>2017-10-27 16:23:28</b>]]></description><styleUrl>#green</styleUrl>
<Point>
<coordinates>34.80022497,32.16896675</coordinates></Point>
</Placemark>
<Placemark>
<name><![CDATA[rfi]]></name>
<description><![CDATA[BSSID: <b>c4:04:15:a7:e0:e0</b><br/>Capabilities: <b>[WPA2-PSK-CCMP][ESS]</b><br/>Frequency: <b>2462</b><br/>Timestamp: <b>1509110749000</b><br/>Date: <b>2017-10-27 16:25:49</b>]]></description><styleUrl>#red</styleUrl>
<Point>
<coordinates>34.80660254,32.16985096</coordinates></Point>
</Placemark>
<Placemark>
<name><![CDATA[HOTBOX]]></name>
<description><![CDATA[BSSID: <b>7c:b7:33:c0:ad:87</b><br/>Capabilities: <b>[WPA-PSK-CCMP+TKIP][WPA2-PSK-CCMP+TKIP][ESS]</b><br/>Frequency: <b>2412</b><br/>Timestamp: <b>1509110776000</b><br/>Date: <b>2017-10-27 16:26:16</b>]]></description><styleUrl>#red</styleUrl>
<Point>
<coordinates>34.8077393,32.17250319</coordinates></Point>
</Placemark>
<Placemark>
<name><![CDATA[Robert1]]></name>
<description><![CDATA[BSSID: <b>3c:1e:04:03:7f:17</b><br/>Capabilities: <b>[WPA2-PSK-CCMP][ESS]</b><br/>Frequency: <b>2412</b><br/>Timestamp: <b>1509110182000</b><br/>Date: <b>2017-10-27 16:16:22</b>]]></description><styleUrl>#red</styleUrl>
<Point>
<coordinates>34.80988697,32.16763949</coordinates></Point>
</Placemark>
<Placemark>
<name><![CDATA[dan38]]></name>
<description><![CDATA[BSSID: <b>84:16:f9:c2:fa:6e</b><br/>Capabilities: <b>[WPA-PSK-CCMP+TKIP][WPA2-PSK-CCMP+TKIP][WPS][ESS]</b><br/>Frequency: <b>2427</b><br/>Timestamp: <b>1509110818000</b><br/>Date: <b>2017-10-27 16:26:58</b>]]></description><styleUrl>#red</styleUrl>
<Point>
<coordinates>34.81166081,32.17262741</coordinates></Point>
</Placemark>
<Placemark>
<name><![CDATA[1008]]></name>
<description><![CDATA[BSSID: <b>f8:e9:03:13:84:93</b><br/>Capabilities: <b>[WPA2-PSK-CCMP][ESS]</b><br/>Frequency: <b>2462</b><br/>Timestamp: <b>1509110581000</b><br/>Date: <b>2017-10-27 16:23:01</b>]]></description><styleUrl>#red</styleUrl>
<Point>
<coordinates>34.80062195,32.17038651</coordinates></Point>
</Placemark>
<Placemark>
<name><![CDATA[shlomi]]></name>
<description><![CDATA[BSSID: <b>d8:5d:4c:d9:c4:68</b><br/>Capabilities: <b>[WPA-PSK-CCMP+TKIP][WPA2-PSK-CCMP+TKIP][WPS][ESS]</b><br/>Frequency: <b>2412</b><br/>Timestamp: <b>1509110871000</b><br/>Date: <b>2017-10-27 16:27:51</b>]]></description><styleUrl>#red</styleUrl>
<Point>
<coordinates>34.81056291,32.16893268</coordinates></Point>
</Placemark>
<Placemark>
<name><![CDATA[DIRECT-33-HP OfficeJet 6950]]></name>
<description><![CDATA[BSSID: <b>98:e7:f4:00:94:35</b><br/>Capabilities: <b>[WPA2-PSK-CCMP][WPS][ESS]</b><br/>Frequency: <b>2437</b><br/>Timestamp: <b>1509110152000</b><br/>Date: <b>2017-10-27 16:15:52</b>]]></description><styleUrl>#red</styleUrl>
<Point>
<coordinates>34.8109599,32.16874744</coordinates></Point>
</Placemark>
<Placemark>
<name><![CDATA[DIRECT-90-HP DeskJet 3630 series]]></name>
<description><![CDATA[BSSID: <b>70:5a:0f:5b:0f:91</b><br/>Capabilities: <b>[WPA2-PSK-CCMP][WPS][ESS]</b><br/>Frequency: <b>2462</b><br/>Timestamp: <b>1509110437000</b><br/>Date: <b>2017-10-27 16:20:37</b>]]></description><styleUrl>#red</styleUrl>
<Point>
<coordinates>34.80209549,32.1683407</coordinates></Point>
</Placemark>
<Placemark>
<name><![CDATA[Rozalin.co.il]]></name>
<description><![CDATA[BSSID: <b>08:5b:0e:8e:06:97</b><br/>Capabilities: <b>[WPA2-PSK-CCMP-preauth][ESS]</b><br/>Frequency: <b>2412</b><br/>Timestamp: <b>1509110635000</b><br/>Date: <b>2017-10-27 16:23:55</b>]]></description><styleUrl>#red</styleUrl>
<Point>
<coordinates>34.80145366,32.16791664</coordinates></Point>
</Placemark>
<Placemark>
<name><![CDATA[HOTBOX-62D0]]></name>
<description><![CDATA[BSSID: <b>54:64:d9:66:27:79</b><br/>Capabilities: <b>[WPA-PSK-CCMP+TKIP][WPA2-PSK-CCMP+TKIP][ESS]</b><br/>Frequency: <b>2412</b><br/>Timestamp: <b>1509110617000</b><br/>Date: <b>2017-10-27 16:23:37</b>]]></description><styleUrl>#red</styleUrl>
<Point>
<coordinates>34.80011614,32.16840058</coordinates></Point>
</Placemark>
<Placemark>
<name><![CDATA[marcus]]></name>
<description><![CDATA[BSSID: <b>30:46:9a:2c:3d:94</b><br/>Capabilities: <b>[WEP][ESS]</b><br/>Frequency: <b>2437</b><br/>Timestamp: <b>1509110641000</b><br/>Date: <b>2017-10-27 16:24:01</b>]]></description><styleUrl>#yellow</styleUrl>
<Point>
<coordinates>34.80206584,32.16785244</coordinates></Point>
</Placemark>
<Placemark>
<name><![CDATA[samra]]></name>
<description><![CDATA[BSSID: <b>00:8c:54:8e:39:81</b><br/>Capabilities: <b>[WPA2-PSK-CCMP][WPS][ESS]</b><br/>Frequency: <b>2462</b><br/>Timestamp: <b>1509110352000</b><br/>Date: <b>2017-10-27 16:19:12</b>]]></description><styleUrl>#red</styleUrl>
<Point>
<coordinates>34.80697148,32.16749167</coordinates></Point>
</Placemark>
<Placemark>
<name><![CDATA[Mouly]]></name>
<description><![CDATA[BSSID: <b>7c:b7:33:2e:76:73</b><br/>Capabilities: <b>[WPA-PSK-CCMP+TKIP][WPA2-PSK-CCMP+TKIP][ESS]</b><br/>Frequency: <b>2462</b><br/>Timestamp: <b>1509110886000</b><br/>Date: <b>2017-10-27 16:28:06</b>]]></description><styleUrl>#red</styleUrl>
<Point>
<coordinates>34.80992403,32.167615</coordinates></Point>
</Placemark>
<Placemark>
<name><![CDATA[Shani - Green]]></name>
<description><![CDATA[BSSID: <b>54:b8:0a:34:78:90</b><br/>Capabilities: <b>[WPA-PSK-CCMP+TKIP][WPA2-PSK-CCMP+TKIP][ESS]</b><br/>Frequency: <b>2432</b><br/>Timestamp: <b>1509110853000</b><br/>Date: <b>2017-10-27 16:27:33</b>]]></description><styleUrl>#red</styleUrl>
<Point>
<coordinates>34.81143093,32.17074449</coordinates></Point>
</Placemark>
<Placemark>
<name><![CDATA[oved-main]]></name>
<description><![CDATA[BSSID: <b>74:da:39:54:b8:1d</b><br/>Capabilities: <b>[WPA2-PSK-CCMP][ESS]</b><br/>Frequency: <b>2437</b><br/>Timestamp: <b>1509110880000</b><br/>Date: <b>2017-10-27 16:28:00</b>]]></description><styleUrl>#red</styleUrl>
<Point>
<coordinates>34.81022347,32.16799923</coordinates></Point>
</Placemark>
<Placemark>
<name><![CDATA[berko_5]]></name>
<description><![CDATA[BSSID: <b>10:5a:f7:06:d2:0a</b><br/>Capabilities: <b>[WPA2-PSK-CCMP][ESS]</b><br/>Frequency: <b>5260</b><br/>Timestamp: <b>1509110800000</b><br/>Date: <b>2017-10-27 16:26:40</b>]]></description><styleUrl>#red</styleUrl>
<Point>
<coordinates>34.80965043,32.17314943</coordinates></Point>
</Placemark>
<Placemark>
<name><![CDATA[newyossi]]></name>
<description><![CDATA[BSSID: <b>50:c7:bf:7f:7c:3c</b><br/>Capabilities: <b>[WPA2-PSK-CCMP][WPS][ESS]</b><br/>Frequency: <b>2452</b><br/>Timestamp: <b>1509110797000</b><br/>Date: <b>2017-10-27 16:26:37</b>]]></description><styleUrl>#red</styleUrl>
<Point>
<coordinates>34.80921234,32.17324726</coordinates></Point>
</Placemark>
<Placemark>
<name><![CDATA[clean shop Wi Fi]]></name>
<description><![CDATA[BSSID: <b>6c:19:8f:4b:56:3b</b><br/>Capabilities: <b>[WEP][ESS]</b><br/>Frequency: <b>2437</b><br/>Timestamp: <b>1509110797000</b><br/>Date: <b>2017-10-27 16:26:37</b>]]></description><styleUrl>#yellow</styleUrl>
<Point>
<coordinates>34.80921234,32.17324726</coordinates></Point>
</Placemark>
<Placemark>
<name><![CDATA[Yoels]]></name>
<description><![CDATA[BSSID: <b>00:8c:54:8b:ec:e1</b><br/>Capabilities: <b>[WPA2-PSK-CCMP][ESS]</b><br/>Frequency: <b>2437</b><br/>Timestamp: <b>1509110650000</b><br/>Date: <b>2017-10-27 16:24:10</b>]]></description><styleUrl>#red</styleUrl>
<Point>
<coordinates>34.8028197,32.16776054</coordinates></Point>
</Placemark>
<Placemark>
<name><![CDATA[BezeqFree]]></name>
<description><![CDATA[BSSID: <b>14:af:db:cd:36:3a</b><br/>Capabilities: <b>[WPA2-PSK-CCMP][ESS]</b><br/>Frequency: <b>2457</b><br/>Timestamp: <b>1509110806000</b><br/>Date: <b>2017-10-27 16:26:46</b>]]></description><styleUrl>#red</styleUrl>
<Point>
<coordinates>34.81050125,32.17297854</coordinates></Point>
</Placemark>
<Placemark>
<name><![CDATA[888Free]]></name>
<description><![CDATA[BSSID: <b>06:8d:db:6e:71:6d</b><br/>Capabilities: <b>[ESS]</b><br/>Frequency: <b>2412</b><br/>Timestamp: <b>1509110889000</b><br/>Date: <b>2017-10-27 16:28:09</b>]]></description><styleUrl>#green</styleUrl>
<Point>
<coordinates>34.80986741,32.16758618</coordinates></Point>
</Placemark>
<Placemark>
<name><![CDATA[DIRECT-AA-HP OfficeJet Pro 8710]]></name>
<description><![CDATA[BSSID: <b>30:e1:71:d5:5c:ab</b><br/>Capabilities: <b>[WPA2-PSK-CCMP][WPS][ESS]</b><br/>Frequency: <b>2452</b><br/>Timestamp: <b>1509110668000</b><br/>Date: <b>2017-10-27 16:24:28</b>]]></description><styleUrl>#red</styleUrl>
<Point>
<coordinates>34.80286516,32.16777778</coordinates></Point>
</Placemark>
<Placemark>
<name><![CDATA[TopAudio]]></name>
<description><![CDATA[BSSID: <b>4c:60:de:d1:da:80</b><br/>Capabilities: <b>[WEP][ESS]</b><br/>Frequency: <b>2437</b><br/>Timestamp: <b>1509110575000</b><br/>Date: <b>2017-10-27 16:22:55</b>]]></description><styleUrl>#yellow</styleUrl>
<Point>
<coordinates>34.80080423,32.17091575</coordinates></Point>
</Placemark>
<Placemark>
<name><![CDATA[DIRECT-A4-HP OfficeJet 6950]]></name>
<description><![CDATA[BSSID: <b>c8:d3:ff:f9:48:a5</b><br/>Capabilities: <b>[WPA2-PSK-CCMP][WPS][ESS]</b><br/>Frequency: <b>2412</b><br/>Timestamp: <b>1509110862000</b><br/>Date: <b>2017-10-27 16:27:42</b>]]></description><styleUrl>#red</styleUrl>
<Point>
<coordinates>34.81096842,32.16989007</coordinates></Point>
</Placemark>
<Placemark>
<name><![CDATA[I.L.L]]></name>
<description><![CDATA[BSSID: <b>c0:ff:d4:bd:96:ca</b><br/>Capabilities: <b>[WPA2-PSK-CCMP][WPS][ESS]</b><br/>Frequency: <b>2412</b><br/>Timestamp: <b>1509110641000</b><br/>Date: <b>2017-10-27 16:24:01</b>]]></description><styleUrl>#red</styleUrl>
<Point>
<coordinates>34.80206584,32.16785244</coordinates></Point>
</Placemark>
<Placemark>
<name><![CDATA[tslila]]></name>
<description><![CDATA[BSSID: <b>c4:3d:c7:5a:79:1c</b><br/>Capabilities: <b>[WPA2-PSK-CCMP][WPS][ESS]</b><br/>Frequency: <b>2462</b><br/>Timestamp: <b>1509110077000</b><br/>Date: <b>2017-10-27 16:14:37</b>]]></description><styleUrl>#red</styleUrl>
<Point>
<coordinates>34.81322274,32.16866695</coordinates></Point>
</Placemark>
<Placemark>
<name><![CDATA[gidron]]></name>
<description><![CDATA[BSSID: <b>f8:0b:cb:51:74:e8</b><br/>Capabilities: <b>[WPA2-PSK-CCMP][WPS][ESS]</b><br/>Frequency: <b>2412</b><br/>Timestamp: <b>1509110490000</b><br/>Date: <b>2017-10-27 16:21:30</b>]]></description><styleUrl>#red</styleUrl>
<Point>
<coordinates>34.80067669,32.1704695</coordinates></Point>
</Placemark>
<Placemark>
<name><![CDATA[HOTBOX-3DFD]]></name>
<description><![CDATA[BSSID: <b>f4:6b:ef:e2:2b:25</b><br/>Capabilities: <b>[WPA-PSK-CCMP+TKIP][WPA2-PSK-CCMP+TKIP][ESS]</b><br/>Frequency: <b>2412</b><br/>Timestamp: <b>1509110446000</b><br/>Date: <b>2017-10-27 16:20:46</b>]]></description><styleUrl>#red</styleUrl>
<Point>
<coordinates>34.80120414,32.16844882</coordinates></Point>
</Placemark>
<Placemark>
<name><![CDATA[Sveta]]></name>
<description><![CDATA[BSSID: <b>b4:ee:b4:ac:ce:70</b><br/>Capabilities: <b>[WPA-PSK-CCMP+TKIP][WPA2-PSK-CCMP+TKIP][ESS]</b><br/>Frequency: <b>2462</b><br/>Timestamp: <b>1509110716000</b><br/>Date: <b>2017-10-27 16:25:16</b>]]></description><styleUrl>#red</styleUrl>
<Point>
<coordinates>34.80538989,32.16794147</coordinates></Point>
</Placemark>
<Placemark>
<name><![CDATA[ben moshe]]></name>
<description><![CDATA[BSSID: <b>b4:ee:b4:36:d2:b0</b><br/>Capabilities: <b>[WPA-PSK-CCMP+TKIP][WPA2-PSK-CCMP+TKIP][ESS]</b><br/>Frequency: <b>2412</b><br/>Timestamp: <b>1509109921000</b><br/>Date: <b>2017-10-27 16:12:01</b>]]></description><styleUrl>#red</styleUrl>
<Point>
<coordinates>34.81328609,32.16857397</coordinates></Point>
</Placemark>
<Placemark>
<name><![CDATA[Volff]]></name>
<description><![CDATA[BSSID: <b>00:78:9e:fb:aa:80</b><br/>Capabilities: <b>[WPA-PSK-CCMP+TKIP][WPA2-PSK-CCMP+TKIP][ESS]</b><br/>Frequency: <b>2412</b><br/>Timestamp: <b>1509110523000</b><br/>Date: <b>2017-10-27 16:22:03</b>]]></description><styleUrl>#red</styleUrl>
<Point>
<coordinates>34.80158775,32.17248602</coordinates></Point>
</Placemark>
<Placemark>
<name><![CDATA[HP-Print-99-Officejet 6700]]></name>
<description><![CDATA[BSSID: <b>84:34:97:1c:cd:99</b><br/>Capabilities: <b>[WPA2-PSK-CCMP][ESS]</b><br/>Frequency: <b>2437</b><br/>Timestamp: <b>1509110644000</b><br/>Date: <b>2017-10-27 16:24:04</b>]]></description><styleUrl>#red</styleUrl>
<Point>
<coordinates>34.80240578,32.16782073</coordinates></Point>
</Placemark>
<Placemark>
<name><![CDATA[YamNadlan]]></name>
<description><![CDATA[BSSID: <b>34:8a:ae:ff:c0:97</b><br/>Capabilities: <b>[WPA-PSK-CCMP+TKIP][WPA2-PSK-CCMP+TKIP][ESS]</b><br/>Frequency: <b>5260</b><br/>Timestamp: <b>1509110764000</b><br/>Date: <b>2017-10-27 16:26:04</b>]]></description><styleUrl>#red</styleUrl>
<Point>
<coordinates>34.8072607,32.17135389</coordinates></Point>
</Placemark>
<Placemark>
<name><![CDATA[smadarwifi]]></name>
<description><![CDATA[BSSID: <b>44:d9:e7:04:ff:fa</b><br/>Capabilities: <b>[WPA2-PSK-CCMP][ESS]</b><br/>Frequency: <b>2462</b><br/>Timestamp: <b>1509110443000</b><br/>Date: <b>2017-10-27 16:20:43</b>]]></description><styleUrl>#red</styleUrl>
<Point>
<coordinates>34.8014927,32.16841015</coordinates></Point>
</Placemark>
<Placemark>
<name><![CDATA[HP-Print-36-Officejet Pro 6830]]></name>
<description><![CDATA[BSSID: <b>dc:4a:3e:be:0a:36</b><br/>Capabilities: <b>[WPA2-PSK-CCMP][ESS]</b><br/>Frequency: <b>2462</b><br/>Timestamp: <b>1509110390000</b><br/>Date: <b>2017-10-27 16:19:50</b>]]></description><styleUrl>#red</styleUrl>
<Point>
<coordinates>34.80414284,32.16815321</coordinates></Point>
</Placemark>
<Placemark>
<name><![CDATA[obadiahouse1_2_4]]></name>
<description><![CDATA[BSSID: <b>6c:b0:ce:36:91:9f</b><br/>Capabilities: <b>[WPA2-PSK-CCMP][WPS][ESS]</b><br/>Frequency: <b>2412</b><br/>Timestamp: <b>1509110758000</b><br/>Date: <b>2017-10-27 16:25:58</b>]]></description><styleUrl>#red</styleUrl>
<Point>
<coordinates>34.80700602,32.17078967</coordinates></Point>
</Placemark>
<Placemark>
<name><![CDATA[Zeitlin1-Salon]]></name>
<description><![CDATA[BSSID: <b>60:e3:27:9e:8a:ea</b><br/>Capabilities: <b>[WPA2-PSK-CCMP][ESS]</b><br/>Frequency: <b>2462</b><br/>Timestamp: <b>1509110587000</b><br/>Date: <b>2017-10-27 16:23:07</b>]]></description><styleUrl>#red</styleUrl>
<Point>
<coordinates>34.80050789,32.17006781</coordinates></Point>
</Placemark>
<Placemark>
<name><![CDATA[123uoses]]></name>
<description><![CDATA[BSSID: <b>00:12:2a:31:b9:dc</b><br/>Capabilities: <b>[WPA-PSK-CCMP+TKIP][WPA2-PSK-CCMP+TKIP][WPS][ESS]</b><br/>Frequency: <b>2452</b><br/>Timestamp: <b>1509110523000</b><br/>Date: <b>2017-10-27 16:22:03</b>]]></description><styleUrl>#red</styleUrl>
<Point>
<coordinates>34.80158775,32.17248602</coordinates></Point>
</Placemark>
<Placemark>
<name><![CDATA[Gini_Router_R1_LTE]]></name>
<description><![CDATA[BSSID: <b>8c:44:35:0f:27:57</b><br/>Capabilities: <b>[ESS]</b><br/>Frequency: <b>2412</b><br/>Timestamp: <b>1509110315000</b><br/>Date: <b>2017-10-27 16:18:35</b>]]></description><styleUrl>#green</styleUrl>
<Point>
<coordinates>34.80988907,32.16764549</coordinates></Point>
</Placemark>
<Placemark>
<name><![CDATA[kaymeraQA]]></name>
<description><![CDATA[BSSID: <b>00:f6:63:15:58:80</b><br/>Capabilities: <b>[WPA-PSK-CCMP+TKIP][WPA2-PSK-CCMP][ESS][P2P]</b><br/>Frequency: <b>2412</b><br/>Timestamp: <b>1509110889000</b><br/>Date: <b>2017-10-27 16:28:09</b>]]></description><styleUrl>#red</styleUrl>
<Point>
<coordinates>34.80986741,32.16758618</coordinates></Point>
</Placemark>
<Placemark>
<name><![CDATA[HOTFiber-FF2F]]></name>
<description><![CDATA[BSSID: <b>7c:b7:33:ea:a3:72</b><br/>Capabilities: <b>[WPA-PSK-CCMP+TKIP][WPA2-PSK-CCMP+TKIP][ESS]</b><br/>Frequency: <b>2412</b><br/>Timestamp: <b>1509110728000</b><br/>Date: <b>2017-10-27 16:25:28</b>]]></description><styleUrl>#red</styleUrl>
<Point>
<coordinates>34.80606514,32.167768</coordinates></Point>
</Placemark>
<Placemark>
<name><![CDATA[daniel]]></name>
<description><![CDATA[BSSID: <b>e8:1d:a8:05:01:58</b><br/>Capabilities: <b>[ESS]</b><br/>Frequency: <b>2427</b><br/>Timestamp: <b>1509110584000</b><br/>Date: <b>2017-10-27 16:23:04</b>]]></description><styleUrl>#green</styleUrl>
<Point>
<coordinates>34.80053654,32.17014829</coordinates></Point>
</Placemark>
<Placemark>
<name><![CDATA[Greenberg1_2EX]]></name>
<description><![CDATA[BSSID: <b>74:da:38:a6:db:98</b><br/>Capabilities: <b>[WPA2-PSK-CCMP-preauth][WPS][ESS]</b><br/>Frequency: <b>2462</b><br/>Timestamp: <b>1509110806000</b><br/>Date: <b>2017-10-27 16:26:46</b>]]></description><styleUrl>#red</styleUrl>
<Point>
<coordinates>34.81050125,32.17297854</coordinates></Point>
</Placemark>
<Placemark>
<name><![CDATA[orchid]]></name>
<description><![CDATA[BSSID: <b>24:79:2a:0e:0f:e8</b><br/>Capabilities: <b>[ESS]</b><br/>Frequency: <b>2412</b><br/>Timestamp: <b>1509110535000</b><br/>Date: <b>2017-10-27 16:22:15</b>]]></description><styleUrl>#green</styleUrl>
<Point>
<coordinates>34.80146374,32.17246041</coordinates></Point>
</Placemark>
<Placemark>
<name><![CDATA[IIT]]></name>
<description><![CDATA[BSSID: <b>ec:8c:a2:a1:25:c8</b><br/>Capabilities: <b>[WPA2-PSK-CCMP][ESS]</b><br/>Frequency: <b>2437</b><br/>Timestamp: <b>1509110457000</b><br/>Date: <b>2017-10-27 16:20:57</b>]]></description><styleUrl>#red</styleUrl>
<Point>
<coordinates>34.80030064,32.16854703</coordinates></Point>
</Placemark>
<Placemark>
<name><![CDATA[Dekel]]></name>
<description><![CDATA[BSSID: <b>cc:b2:55:e6:f2:15</b><br/>Capabilities: <b>[WPA-PSK-CCMP][ESS]</b><br/>Frequency: <b>2437</b><br/>Timestamp: <b>1509110815000</b><br/>Date: <b>2017-10-27 16:26:55</b>]]></description><styleUrl>#red</styleUrl>
<Point>
<coordinates>34.81140622,32.17274362</coordinates></Point>
</Placemark>
<Placemark>
<name><![CDATA[gella555]]></name>
<description><![CDATA[BSSID: <b>00:22:b0:75:7d:eb</b><br/>Capabilities: <b>[WEP][ESS]</b><br/>Frequency: <b>2437</b><br/>Timestamp: <b>1509110719000</b><br/>Date: <b>2017-10-27 16:25:19</b>]]></description><styleUrl>#yellow</styleUrl>
<Point>
<coordinates>34.80562835,32.16787842</coordinates></Point>
</Placemark>
<Placemark>
<name><![CDATA[BARON WIFI 2.4]]></name>
<description><![CDATA[BSSID: <b>60:e3:27:bf:a1:a5</b><br/>Capabilities: <b>[WPA2-PSK-CCMP][ESS]</b><br/>Frequency: <b>2462</b><br/>Timestamp: <b>1509110167000</b><br/>Date: <b>2017-10-27 16:16:07</b>]]></description><styleUrl>#red</styleUrl>
<Point>
<coordinates>34.81030598,32.1682687</coordinates></Point>
</Placemark>
<Placemark>
<name><![CDATA[HP-Setup>75-M277 LaserJet]]></name>
<description><![CDATA[BSSID: <b>92:cd:b6:2b:e9:75</b><br/>Capabilities: <b>[ESS]</b><br/>Frequency: <b>2412</b><br/>Timestamp: <b>1509110862000</b><br/>Date: <b>2017-10-27 16:27:42</b>]]></description><styleUrl>#green</styleUrl>
<Point>
<coordinates>34.81096842,32.16989007</coordinates></Point>
</Placemark>
<Placemark>
<name><![CDATA[ronkla2]]></name>
<description><![CDATA[BSSID: <b>3c:1e:04:07:2a:fe</b><br/>Capabilities: <b>[WPA2-PSK-CCMP][ESS]</b><br/>Frequency: <b>2437</b><br/>Timestamp: <b>1509110859000</b><br/>Date: <b>2017-10-27 16:27:39</b>]]></description><styleUrl>#red</styleUrl>
<Point>
<coordinates>34.81109731,32.17017837</coordinates></Point>
</Placemark>
<Placemark>
<name><![CDATA[]]></name>
<description><![CDATA[BSSID: <b>54:b8:0a:31:22:c0</b><br/>Capabilities: <b>[WPA2-PSK-CCMP][ESS]</b><br/>Frequency: <b>2462</b><br/>Timestamp: <b>1509110496000</b><br/>Date: <b>2017-10-27 16:21:36</b>]]></description><styleUrl>#red</styleUrl>
<Point>
<coordinates>34.80087842,32.17094993</coordinates></Point>
</Placemark>
<Placemark>
<name><![CDATA[DIRECT-15-HP OfficeJet Pro 8720]]></name>
<description><![CDATA[BSSID: <b>70:5a:0f:f6:05:16</b><br/>Capabilities: <b>[WPA2-PSK-CCMP][WPS][ESS]</b><br/>Frequency: <b>2417</b><br/>Timestamp: <b>1509110644000</b><br/>Date: <b>2017-10-27 16:24:04</b>]]></description><styleUrl>#red</styleUrl>
<Point>
<coordinates>34.80240578,32.16782073</coordinates></Point>
</Placemark>
<Placemark>
<name><![CDATA[Azoulay]]></name>
<description><![CDATA[BSSID: <b>b4:ee:b4:a9:15:f7</b><br/>Capabilities: <b>[WPA-PSK-CCMP+TKIP][WPA2-PSK-CCMP+TKIP][ESS]</b><br/>Frequency: <b>2412</b><br/>Timestamp: <b>1509110847000</b><br/>Date: <b>2017-10-27 16:27:27</b>]]></description><styleUrl>#red</styleUrl>
<Point>
<coordinates>34.81173835,32.17137454</coordinates></Point>
</Placemark>
<Placemark>
<name><![CDATA[anna2.4]]></name>
<description><![CDATA[BSSID: <b>a0:ab:1b:62:76:ac</b><br/>Capabilities: <b>[WPA2-PSK-CCMP][ESS]</b><br/>Frequency: <b>2417</b><br/>Timestamp: <b>1509110707000</b><br/>Date: <b>2017-10-27 16:25:07</b>]]></description><styleUrl>#red</styleUrl>
<Point>
<coordinates>34.80406649,32.16810519</coordinates></Point>
</Placemark>
<Placemark>
<name><![CDATA[MOULY MAISON]]></name>
<description><![CDATA[BSSID: <b>00:78:9e:fa:15:91</b><br/>Capabilities: <b>[WPA-PSK-CCMP+TKIP][WPA2-PSK-CCMP+TKIP][ESS]</b><br/>Frequency: <b>2412</b><br/>Timestamp: <b>1509110191000</b><br/>Date: <b>2017-10-27 16:16:31</b>]]></description><styleUrl>#red</styleUrl>
<Point>
<coordinates>34.80987929,32.16762928</coordinates></Point>
</Placemark>
<Placemark>
<name><![CDATA[TREEHOUSE]]></name>
<description><![CDATA[BSSID: <b>c4:12:f5:7f:5a:15</b><br/>Capabilities: <b>[WPA2-PSK-CCMP][ESS]</b><br/>Frequency: <b>2437</b><br/>Timestamp: <b>1509110578000</b><br/>Date: <b>2017-10-27 16:22:58</b>]]></description><styleUrl>#red</styleUrl>
<Point>
<coordinates>34.80073339,32.1706614</coordinates></Point>
</Placemark>
<Placemark>
<name><![CDATA[Edimax AP]]></name>
<description><![CDATA[BSSID: <b>80:1f:02:66:5a:58</b><br/>Capabilities: <b>[ESS]</b><br/>Frequency: <b>2462</b><br/>Timestamp: <b>1509110785000</b><br/>Date: <b>2017-10-27 16:26:25</b>]]></description><styleUrl>#green</styleUrl>
<Point>
<coordinates>34.8080852,32.17329851</coordinates></Point>
</Placemark>
<Placemark>
<name><![CDATA[Wireless]]></name>
<description><![CDATA[BSSID: <b>02:1f:c6:8b:69:1d</b><br/>Capabilities: <b>[WEP][ESS]</b><br/>Frequency: <b>2462</b><br/>Timestamp: <b>1509110532000</b><br/>Date: <b>2017-10-27 16:22:12</b>]]></description><styleUrl>#yellow</styleUrl>
<Point>
<coordinates>34.80149871,32.17265603</coordinates></Point>
</Placemark>
<Placemark>
<name><![CDATA[japan]]></name>
<description><![CDATA[BSSID: <b>70:62:b8:30:f8:4e</b><br/>Capabilities: <b>[WPA2-PSK-CCMP][ESS]</b><br/>Frequency: <b>2412</b><br/>Timestamp: <b>1509110449000</b><br/>Date: <b>2017-10-27 16:20:49</b>]]></description><styleUrl>#red</styleUrl>
<Point>
<coordinates>34.80091936,32.16846448</coordinates></Point>
</Placemark>
<Placemark>
<name><![CDATA[U2I8L1M0X42]]></name>
<description><![CDATA[BSSID: <b>54:64:d9:66:29:ef</b><br/>Capabilities: <b>[WPA-PSK-CCMP+TKIP][WPA2-PSK-CCMP+TKIP][ESS]</b><br/>Frequency: <b>2462</b><br/>Timestamp: <b>1509110850000</b><br/>Date: <b>2017-10-27 16:27:30</b>]]></description><styleUrl>#red</styleUrl>
<Point>
<coordinates>34.81157034,32.17104698</coordinates></Point>
</Placemark>
<Placemark>
<name><![CDATA[BlueSnap-Guest-2.4GHz]]></name>
<description><![CDATA[BSSID: <b>c0:56:27:a0:6c:9a</b><br/>Capabilities: <b>[WPA2-PSK-CCMP][ESS]</b><br/>Frequency: <b>2422</b><br/>Timestamp: <b>1509110349000</b><br/>Date: <b>2017-10-27 16:19:09</b>]]></description><styleUrl>#red</styleUrl>
<Point>
<coordinates>34.80739313,32.16733646</coordinates></Point>
</Placemark>
<Placemark>
<name><![CDATA[AHARON]]></name>
<description><![CDATA[BSSID: <b>5c:d9:98:c6:33:56</b><br/>Capabilities: <b>[WPA2-PSK-CCMP][ESS]</b><br/>Frequency: <b>2437</b><br/>Timestamp: <b>1509110446000</b><br/>Date: <b>2017-10-27 16:20:46</b>]]></description><styleUrl>#red</styleUrl>
<Point>
<coordinates>34.80120414,32.16844882</coordinates></Point>
</Placemark>
<Placemark>
<name><![CDATA[DIRECT-52-HP DeskJet 3830 series]]></name>
<description><![CDATA[BSSID: <b>94:57:a5:4d:eb:8b</b><br/>Capabilities: <b>[WPA2-PSK-CCMP][WPS][ESS]</b><br/>Frequency: <b>2437</b><br/>Timestamp: <b>1509110722000</b><br/>Date: <b>2017-10-27 16:25:22</b>]]></description><styleUrl>#red</styleUrl>
<Point>
<coordinates>34.8057662,32.16780207</coordinates></Point>
</Placemark>
<Placemark>
<name><![CDATA[gabriel]]></name>
<description><![CDATA[BSSID: <b>90:8d:78:50:6a:12</b><br/>Capabilities: <b>[WPA2-PSK-CCMP][ESS]</b><br/>Frequency: <b>2462</b><br/>Timestamp: <b>1509110716000</b><br/>Date: <b>2017-10-27 16:25:16</b>]]></description><styleUrl>#red</styleUrl>
<Point>
<coordinates>34.80538989,32.16794147</coordinates></Point>
</Placemark>
<Placemark>
<name><![CDATA[GRATCH]]></name>
<description><![CDATA[BSSID: <b>04:bd:88:00:fc:00</b><br/>Capabilities: <b>[WPA2-PSK+FT/PSK-CCMP][ESS]</b><br/>Frequency: <b>2462</b><br/>Timestamp: <b>1509110446000</b><br/>Date: <b>2017-10-27 16:20:46</b>]]></description><styleUrl>#red</styleUrl>
<Point>
<coordinates>34.80120414,32.16844882</coordinates></Point>
</Placemark>
<Placemark>
<name><![CDATA[kenedy]]></name>
<description><![CDATA[BSSID: <b>e8:94:f6:b7:4f:54</b><br/>Capabilities: <b>[WPA-PSK-CCMP+TKIP][WPA2-PSK-CCMP+TKIP][WPS][ESS]</b><br/>Frequency: <b>2432</b><br/>Timestamp: <b>1509110511000</b><br/>Date: <b>2017-10-27 16:21:51</b>]]></description><styleUrl>#red</styleUrl>
<Point>
<coordinates>34.80126227,32.17183759</coordinates></Point>
</Placemark>
<Placemark>
<name><![CDATA[]]></name>
<description><![CDATA[BSSID: <b>00:22:6c:5f:c6:d4</b><br/>Capabilities: <b>[ESS]</b><br/>Frequency: <b>2462</b><br/>Timestamp: <b>1509110749000</b><br/>Date: <b>2017-10-27 16:25:49</b>]]></description><styleUrl>#green</styleUrl>
<Point>
<coordinates>34.80660254,32.16985096</coordinates></Point>
</Placemark>
<Placemark>
<name><![CDATA[Van2]]></name>
<description><![CDATA[BSSID: <b>90:f6:52:78:f4:cb</b><br/>Capabilities: <b>[WPA-PSK-CCMP+TKIP][WPA2-PSK-CCMP+TKIP][WPS][ESS]</b><br/>Frequency: <b>2457</b><br/>Timestamp: <b>1509110779000</b><br/>Date: <b>2017-10-27 16:26:19</b>]]></description><styleUrl>#red</styleUrl>
<Point>
<coordinates>34.80783579,32.17276011</coordinates></Point>
</Placemark>
<Placemark>
<name><![CDATA[HOTBOX1212]]></name>
<description><![CDATA[BSSID: <b>c0:ac:54:f6:3b:c0</b><br/>Capabilities: <b>[WPA-PSK-CCMP+TKIP][WPA2-PSK-CCMP+TKIP][ESS]</b><br/>Frequency: <b>2462</b><br/>Timestamp: <b>1509110746000</b><br/>Date: <b>2017-10-27 16:25:46</b>]]></description><styleUrl>#red</styleUrl>
<Point>
<coordinates>34.80649419,32.16953076</coordinates></Point>
</Placemark>
<Placemark>
<name><![CDATA[elissa]]></name>
<description><![CDATA[BSSID: <b>c8:be:19:07:58:09</b><br/>Capabilities: <b>[WPA2-PSK-CCMP][ESS]</b><br/>Frequency: <b>2412</b><br/>Timestamp: <b>1509110716000</b><br/>Date: <b>2017-10-27 16:25:16</b>]]></description><styleUrl>#red</styleUrl>
<Point>
<coordinates>34.80538989,32.16794147</coordinates></Point>
</Placemark>
<Placemark>
<name><![CDATA[Happy Home Network]]></name>
<description><![CDATA[BSSID: <b>c0:a0:bb:cc:e2:3a</b><br/>Capabilities: <b>[WPA-PSK-CCMP+TKIP][ESS]</b><br/>Frequency: <b>2412</b><br/>Timestamp: <b>1509110635000</b><br/>Date: <b>2017-10-27 16:23:55</b>]]></description><styleUrl>#red</styleUrl>
<Point>
<coordinates>34.80145366,32.16791664</coordinates></Point>
</Placemark>
<Placemark>
<name><![CDATA[HOTFiber]]></name>
<description><![CDATA[BSSID: <b>7c:b7:33:a1:a5:6d</b><br/>Capabilities: <b>[WPA-PSK-CCMP+TKIP][WPA2-PSK-CCMP+TKIP][ESS]</b><br/>Frequency: <b>2457</b><br/>Timestamp: <b>1509110806000</b><br/>Date: <b>2017-10-27 16:26:46</b>]]></description><styleUrl>#red</styleUrl>
<Point>
<coordinates>34.81050125,32.17297854</coordinates></Point>
</Placemark>
<Placemark>
<name><![CDATA[cactus]]></name>
<description><![CDATA[BSSID: <b>a0:4f:d4:42:ba:71</b><br/>Capabilities: <b>[WPA2-PSK-CCMP][ESS]</b><br/>Frequency: <b>2412</b><br/>Timestamp: <b>1509110325000</b><br/>Date: <b>2017-10-27 16:18:45</b>]]></description><styleUrl>#red</styleUrl>
<Point>
<coordinates>34.80930495,32.1672194</coordinates></Point>
</Placemark>
<Placemark>
<name><![CDATA[Bezeq Free NA1F34]]></name>
<description><![CDATA[BSSID: <b>72:2b:8c:99:02:06</b><br/>Capabilities: <b>[ESS]</b><br/>Frequency: <b>2412</b><br/>Timestamp: <b>1509110602000</b><br/>Date: <b>2017-10-27 16:23:22</b>]]></description><styleUrl>#green</styleUrl>
<Point>
<coordinates>34.80035958,32.16953355</coordinates></Point>
</Placemark>
<Placemark>
<name><![CDATA[daniel]]></name>
<description><![CDATA[BSSID: <b>e8:1d:a8:05:03:08</b><br/>Capabilities: <b>[ESS]</b><br/>Frequency: <b>2412</b><br/>Timestamp: <b>1509110581000</b><br/>Date: <b>2017-10-27 16:23:01</b>]]></description><styleUrl>#green</styleUrl>
<Point>
<coordinates>34.80062195,32.17038651</coordinates></Point>
</Placemark>
<Placemark>
<name><![CDATA[MEIR_5]]></name>
<description><![CDATA[BSSID: <b>a0:4f:d4:2c:5e:12</b><br/>Capabilities: <b>[WPA2-PSK-CCMP][ESS]</b><br/>Frequency: <b>5260</b><br/>Timestamp: <b>1509110454000</b><br/>Date: <b>2017-10-27 16:20:54</b>]]></description><styleUrl>#red</styleUrl>
<Point>
<coordinates>34.80047649,32.16851102</coordinates></Point>
</Placemark>
<Placemark>
<name><![CDATA[Roni]]></name>
<description><![CDATA[BSSID: <b>c0:ac:54:f7:fb:ba</b><br/>Capabilities: <b>[WPA-PSK-CCMP+TKIP][WPA2-PSK-CCMP+TKIP][ESS]</b><br/>Frequency: <b>2437</b><br/>Timestamp: <b>1509110776000</b><br/>Date: <b>2017-10-27 16:26:16</b>]]></description><styleUrl>#red</styleUrl>
<Point>
<coordinates>34.8077393,32.17250319</coordinates></Point>
</Placemark>
<Placemark>
<name><![CDATA[Bezeq Free]]></name>
<description><![CDATA[BSSID: <b>62:04:15:60:6a:b6</b><br/>Capabilities: <b>[ESS]</b><br/>Frequency: <b>2412</b><br/>Timestamp: <b>1509110850000</b><br/>Date: <b>2017-10-27 16:27:30</b>]]></description><styleUrl>#green</styleUrl>
<Point>
<coordinates>34.81157034,32.17104698</coordinates></Point>
</Placemark>
<Placemark>
<name><![CDATA[HOTBOX111]]></name>
<description><![CDATA[BSSID: <b>90:f6:52:28:38:19</b><br/>Capabilities: <b>[WPA-PSK-CCMP+TKIP][WPA2-PSK-CCMP+TKIP][ESS]</b><br/>Frequency: <b>2462</b><br/>Timestamp: <b>1509110182000</b><br/>Date: <b>2017-10-27 16:16:22</b>]]></description><styleUrl>#red</styleUrl>
<Point>
<coordinates>34.80988697,32.16763949</coordinates></Point>
</Placemark>
<Placemark>
<name><![CDATA[DanAccadia]]></name>
<description><![CDATA[BSSID: <b>d8:38:fc:26:fd:18</b><br/>Capabilities: <b>[ESS]</b><br/>Frequency: <b>2427</b><br/>Timestamp: <b>1509110461000</b><br/>Date: <b>2017-10-27 16:21:01</b>]]></description><styleUrl>#green</styleUrl>
<Point>
<coordinates>34.80020728,32.16858542</coordinates></Point>
</Placemark>
<Placemark>
<name><![CDATA[888Free]]></name>
<description><![CDATA[BSSID: <b>06:8d:cb:6e:71:be</b><br/>Capabilities: <b>[ESS]</b><br/>Frequency: <b>5220</b><br/>Timestamp: <b>1509110233000</b><br/>Date: <b>2017-10-27 16:17:13</b>]]></description><styleUrl>#green</styleUrl>
<Point>
<coordinates>34.80987698,32.16769734</coordinates></Point>
</Placemark>
<Placemark>
<name><![CDATA[dserota]]></name>
<description><![CDATA[BSSID: <b>00:1b:9e:7a:43:13</b><br/>Capabilities: <b>[WPA2-PSK-CCMP][ESS]</b><br/>Frequency: <b>2437</b><br/>Timestamp: <b>1509110644000</b><br/>Date: <b>2017-10-27 16:24:04</b>]]></description><styleUrl>#red</styleUrl>
<Point>
<coordinates>34.80240578,32.16782073</coordinates></Point>
</Placemark>
<Placemark>
<name><![CDATA[MoragUP]]></name>
<description><![CDATA[BSSID: <b>50:c7:bf:8e:67:66</b><br/>Capabilities: <b>[WPA-PSK-CCMP+TKIP][WPA2-PSK-CCMP+TKIP][WPS][ESS]</b><br/>Frequency: <b>2412</b><br/>Timestamp: <b>1509110358000</b><br/>Date: <b>2017-10-27 16:19:18</b>]]></description><styleUrl>#red</styleUrl>
<Point>
<coordinates>34.80631515,32.16772332</coordinates></Point>
</Placemark>
<Placemark>
<name><![CDATA[Liliup]]></name>
<description><![CDATA[BSSID: <b>74:da:38:c3:12:45</b><br/>Capabilities: <b>[WPA2-PSK-CCMP][WPS][ESS]</b><br/>Frequency: <b>2422</b><br/>Timestamp: <b>1509110880000</b><br/>Date: <b>2017-10-27 16:28:00</b>]]></description><styleUrl>#red</styleUrl>
<Point>
<coordinates>34.81022347,32.16799923</coordinates></Point>
</Placemark>
<Placemark>
<name><![CDATA[888Corp]]></name>
<description><![CDATA[BSSID: <b>0a:8d:cb:6e:71:6d</b><br/>Capabilities: <b>[WPA2-EAP-CCMP][ESS]</b><br/>Frequency: <b>5220</b><br/>Timestamp: <b>1509110230000</b><br/>Date: <b>2017-10-27 16:17:10</b>]]></description><styleUrl>#red</styleUrl>
<Point>
<coordinates>34.80987711,32.16769749</coordinates></Point>
</Placemark>
<Placemark>
<name><![CDATA[menashe]]></name>
<description><![CDATA[BSSID: <b>14:ae:db:48:16:65</b><br/>Capabilities: <b>[WPA2-PSK-CCMP][ESS]</b><br/>Frequency: <b>2427</b><br/>Timestamp: <b>1509110785000</b><br/>Date: <b>2017-10-27 16:26:25</b>]]></description><styleUrl>#red</styleUrl>
<Point>
<coordinates>34.8080852,32.17329851</coordinates></Point>
</Placemark>
<Placemark>
<name><![CDATA[rdpokecoke2]]></name>
<description><![CDATA[BSSID: <b>bc:f6:85:0d:22:cb</b><br/>Capabilities: <b>[WPA-PSK-CCMP+TKIP][ESS]</b><br/>Frequency: <b>2437</b><br/>Timestamp: <b>1509110535000</b><br/>Date: <b>2017-10-27 16:22:15</b>]]></description><styleUrl>#red</styleUrl>
<Point>
<coordinates>34.80146374,32.17246041</coordinates></Point>
</Placemark>
<Placemark>
<name><![CDATA[888Guest]]></name>
<description><![CDATA[BSSID: <b>02:8d:db:6e:71:bf</b><br/>Capabilities: <b>[ESS]</b><br/>Frequency: <b>2412</b><br/>Timestamp: <b>1509110194000</b><br/>Date: <b>2017-10-27 16:16:34</b>]]></description><styleUrl>#green</styleUrl>
<Point>
<coordinates>34.80987749,32.16762991</coordinates></Point>
</Placemark>
<Placemark>
<name><![CDATA[HRZBOUTIKUE]]></name>
<description><![CDATA[BSSID: <b>14:ae:db:a3:90:15</b><br/>Capabilities: <b>[WPA-PSK-CCMP+TKIP][WPA2-PSK-CCMP+TKIP][WPS][ESS]</b><br/>Frequency: <b>2462</b><br/>Timestamp: <b>1509110346000</b><br/>Date: <b>2017-10-27 16:19:06</b>]]></description><styleUrl>#red</styleUrl>
<Point>
<coordinates>34.80782731,32.1671744</coordinates></Point>
</Placemark>
<Placemark>
<name><![CDATA[GP25665584]]></name>
<description><![CDATA[BSSID: <b>f6:dd:9e:7a:1a:4f</b><br/>Capabilities: <b>[WPA2-PSK-CCMP][WPS][ESS]</b><br/>Frequency: <b>2412</b><br/>Timestamp: <b>1509110569000</b><br/>Date: <b>2017-10-27 16:22:49</b>]]></description><styleUrl>#red</styleUrl>
<Point>
<coordinates>34.80097018,32.17132967</coordinates></Point>
</Placemark>
<Placemark>
<name><![CDATA[daniel]]></name>
<description><![CDATA[BSSID: <b>e8:1d:a8:05:01:38</b><br/>Capabilities: <b>[ESS]</b><br/>Frequency: <b>2412</b><br/>Timestamp: <b>1509110493000</b><br/>Date: <b>2017-10-27 16:21:33</b>]]></description><styleUrl>#green</styleUrl>
<Point>
<coordinates>34.80079707,32.1707069</coordinates></Point>
</Placemark>